% program   : RTKLIB ver.2.4.2
% inp file  : /home/gao_yixin/GraphGNSSLib/src/GraphGNSSLib/global_fusion/dataset/gps_solution_TST/COM3_190428_124409.obs
% inp file  : /home/gao_yixin/GraphGNSSLib/src/GraphGNSSLib/global_fusion/dataset/gps_solution_TST/hksc1180.19o
% inp file  : /home/gao_yixin/GraphGNSSLib/src/GraphGNSSLib/global_fusion/dataset/gps_solution_TST/hksc1180.19b
% inp file  : /home/gao_yixin/GraphGNSSLib/src/GraphGNSSLib/global_fusion/dataset/gps_solution_TST/hksc1180.19n
% obs start : 2019/04/28 12:44:34.0 GPST (week2051  45874.0s)
% obs end   : 2019/04/28 13:13:53.0 GPST (week2051  47633.0s)
% pos mode  : kinematic
% freqs     : L1+L2
% solution  : forward
% elev mask : 15.0 deg
% dynamics  : off
% tidecorr  : off
% ionos opt : broadcast
% tropo opt : saastamoinen
% ephemeris : broadcast
% navi sys  : gps glonass galileo qzss sbas
% amb res   : fix and hold
% amb glo   : on
% val thres : 3.0
% antenna1  :                       ( 0.0000  0.0000  0.0000)
% antenna2  :                       ( 0.0000  0.0000  0.0000)
% ref pos   : 22.291035082, 114.213215939,    5.1761
%
% (lat/lon/height=WGS84/ellipsoidal,Q=1:fix,2:float,3:sbas,4:dgps,5:single,6:ppp,ns=# of satellites)
%  GPST        , latitude(deg),longitude(deg), height(m),  Q, ns,  sdn(m),  sde(m),  sdu(m), sdne(m), sdeu(m), sdun(m),age(s), ratio
2051, 45874.000,  22.301491077, 114.190304615,   15.7979,  5,  8, 30.0000, 30.0000, 30.0000, -0.0000,  0.0000, -0.0000,  4.00,   0.0
2051, 45875.000,  22.301526412, 114.190356475,   -6.0964,  5,  8, 30.0000, 30.0000, 30.0000, -0.0000,  0.0000,  0.0000,  5.00,   0.0
2051, 45876.000,  22.301482601, 114.190316209,    1.2870,  5,  8, 30.0000, 30.0000, 30.0000, -0.0000,  0.0000,  0.0000,  6.00,   0.0
2051, 45877.000,  22.301474972, 114.190312577,  -11.1769,  5,  8, 30.0000, 30.0000, 30.0000,  0.0000,  0.0000, -0.0000,  7.00,   0.0
2051, 45879.000,  22.301464835, 114.190326311,   -4.2363,  5,  8, 30.0000, 30.0000, 30.0000,  0.0000, -0.0000,  0.0000,  9.00,   0.0
2051, 45880.000,  22.301472784, 114.190297237,   12.1807,  5,  8, 30.0000, 30.0000, 30.0000, -0.0000, -0.0000,  0.0000, 10.00,   0.0
2051, 45881.000,  22.301465452, 114.190293052,   15.6929,  5,  8, 30.0000, 30.0000, 30.0000,  0.0000,  0.0000,  0.0000, 11.00,   0.0
2051, 45882.000,  22.301442795, 114.190279975,    6.0963,  5,  9, 30.0000, 30.0000, 30.0000, -0.0000,  0.0000,  0.0000, 12.00,   0.0
2051, 45883.000,  22.301449336, 114.190305854,    4.0956,  5,  8, 30.0000, 30.0000, 30.0000, -0.0000,  0.0000,  0.0000, 13.00,   0.0
2051, 45884.000,  22.301485831, 114.190317891,    7.7514,  5,  8, 30.0000, 30.0000, 30.0000,  0.0000, -0.0000, -0.0000, 14.00,   0.0
2051, 45885.000,  22.301465059, 114.190297823,   -4.9549,  5,  8, 30.0000, 30.0000, 30.0000,  0.0000, -0.0000,  0.0000, 15.00,   0.0
2051, 45886.000,  22.301442875, 114.190298767,    0.2652,  5,  8, 30.0000, 30.0000, 30.0000,  0.0000,  0.0000,  0.0000, 16.00,   0.0
2051, 45887.000,  22.301484912, 114.190323751,    5.8277,  5,  8, 30.0000, 30.0000, 30.0000, -0.0000,  0.0000, -0.0000, 17.00,   0.0
2051, 45888.000,  22.301465532, 114.190328441,  -10.2193,  5,  9, 30.0000, 30.0000, 30.0000,  0.0000, -0.0000,  0.0000, 18.00,   0.0
2051, 45889.000,  22.301467452, 114.190320002,   -8.6104,  5, 10, 30.0000, 30.0000, 30.0000,  0.0000,  0.0000,  0.0000, 19.00,   0.0
2051, 45890.000,  22.301449437, 114.190360448,  -33.0546,  5,  9, 30.0000, 30.0000, 30.0000,  0.0000,  0.0000,  0.0000, 20.00,   0.0
2051, 45893.000,  22.301468977, 114.190304078,  -13.9979,  5,  8, 30.0000, 30.0000, 30.0000, -0.0000,  0.0000,  0.0000, 23.00,   0.0
2051, 45894.000,  22.301457270, 114.190305907,   -7.2082,  5,  8, 30.0000, 30.0000, 30.0000, -0.0000, -0.0000,  0.0000, 24.00,   0.0
2051, 45895.000,  22.301504621, 114.190306196,    0.2203,  5,  8, 30.0000, 30.0000, 30.0000,  0.0000, -0.0000, -0.0000, 25.00,   0.0
2051, 45896.000,  22.301495495, 114.190301499,    7.9595,  5,  8, 30.0000, 30.0000, 30.0000,  0.0000,  0.0000, -0.0000, 26.00,   0.0
2051, 45897.000,  22.301452859, 114.190313209,   -6.4779,  5,  8, 30.0000, 30.0000, 30.0000, -0.0000,  0.0000,  0.0000, 27.00,   0.0
2051, 45898.000,  22.301479385, 114.190313482,   -6.2091,  5,  9, 30.0000, 30.0000, 30.0000,  0.0000,  0.0000,  0.0000, 28.00,   0.0
2051, 45899.000,  22.301499073, 114.190324144,    0.7653,  5,  9, 30.0000, 30.0000, 30.0000,  0.0000, -0.0000, -0.0000, 29.00,   0.0
2051, 45900.000,  22.301488250, 114.190301866,    5.6251,  5,  9, 30.0000, 30.0000, 30.0000,  0.0000,  0.0000,  0.0000, -0.00,   0.0
2051, 45901.000,  22.301487915, 114.190316026,  -13.9116,  5,  8, 30.0000, 30.0000, 30.0000,  0.0000,  0.0000,  0.0000,  1.00,   0.0
2051, 45902.000,  22.301481337, 114.190291723,   -1.4981,  5,  8, 30.0000, 30.0000, 30.0000,  0.0000, -0.0000, -0.0000,  2.00,   0.0
2051, 45903.000,  22.301477505, 114.190301300,   14.5464,  5,  8, 30.0000, 30.0000, 30.0000,  0.0000, -0.0000,  0.0000,  3.00,   0.0
2051, 45904.000,  22.301480986, 114.190309923,    5.1080,  5,  8, 30.0000, 30.0000, 30.0000,  0.0000,  0.0000,  0.0000,  4.00,   0.0
2051, 45905.000,  22.301474282, 114.190349279,  -14.0008,  5,  8, 30.0000, 30.0000, 30.0000, -0.0000, -0.0000,  0.0000,  5.00,   0.0
2051, 45906.000,  22.301476811, 114.190330566,  -14.5634,  5,  8, 30.0000, 30.0000, 30.0000,  0.0000,  0.0000,  0.0000,  6.00,   0.0
2051, 45907.000,  22.301460185, 114.190324349,  -11.5215,  5,  8, 30.0000, 30.0000, 30.0000,  0.0000,  0.0000,  0.0000,  7.00,   0.0
2051, 45908.000,  22.301455421, 114.190316738,  -11.6231,  5,  8, 30.0000, 30.0000, 30.0000, -0.0000,  0.0000,  0.0000,  8.00,   0.0
2051, 45909.000,  22.301449963, 114.190306528,  -17.2983,  5,  8, 30.0000, 30.0000, 30.0000,  0.0000, -0.0000, -0.0000,  9.00,   0.0
2051, 45910.000,  22.301447863, 114.190323433,  -35.1436,  5,  8, 30.0000, 30.0000, 30.0000,  0.0000,  0.0000, -0.0000, 10.00,   0.0
2051, 45911.000,  22.301493340, 114.190315795,  -13.6405,  5,  8, 30.0000, 30.0000, 30.0000,  0.0000,  0.0000,  0.0000, 11.00,   0.0
2051, 45912.000,  22.301475418, 114.190302486,    4.0811,  5,  8, 30.0000, 30.0000, 30.0000,  0.0000,  0.0000,  0.0000, 12.00,   0.0
2051, 45913.000,  22.301466159, 114.190293896,  -11.4414,  5,  8, 30.0000, 30.0000, 30.0000, -0.0000,  0.0000,  0.0000, 13.00,   0.0
2051, 45914.000,  22.301485316, 114.190258672,    5.1432,  5, 10, 30.0000, 30.0000, 30.0000,  0.0000, -0.0000, -0.0000, 14.00,   0.0
2051, 45915.000,  22.301499680, 114.190260763,    9.9193,  5,  9, 30.0000, 30.0000, 30.0000,  0.0000,  0.0000,  0.0000, 15.00,   0.0
2051, 45916.000,  22.301513129, 114.190258420,    3.6206,  5, 11, 30.0000, 30.0000, 30.0000,  0.0000,  0.0000, -0.0000, 16.00,   0.0
2051, 45917.000,  22.301512385, 114.190270222,   -8.3084,  5, 12, 30.0000, 30.0000, 30.0000,  0.0000,  0.0000, -0.0000, 17.00,   0.0
2051, 45918.000,  22.301512474, 114.190254742,   -2.3202,  5, 12, 30.0000, 30.0000, 30.0000, -0.0000,  0.0000, -0.0000, 18.00,   0.0
2051, 45919.000,  22.301539584, 114.190238107,    1.9807,  5, 13, 30.0000, 30.0000, 30.0000, -0.0000,  0.0000,  0.0000, 19.00,   0.0
2051, 45920.000,  22.301548640, 114.190238717,   11.4402,  5, 15, 30.0000, 30.0000, 30.0000,  0.0000,  0.0000,  0.0000, 20.00,   0.0
2051, 45921.000,  22.301577672, 114.190242950,   -1.9925,  5, 15, 30.0000, 30.0000, 30.0000,  0.0000,  0.0000,  0.0000, 21.00,   0.0
2051, 45922.000,  22.301600925, 114.190218970,    3.0102,  5, 15, 30.0000, 30.0000, 30.0000,  0.0000, -0.0000, -0.0000, 22.00,   0.0
2051, 45923.000,  22.301633186, 114.190210463,    1.4840,  5, 15, 30.0000, 30.0000, 30.0000,  0.0000, -0.0000,  0.0000, 23.00,   0.0
2051, 45924.000,  22.301663723, 114.190198748,    3.8483,  5, 15, 30.0000, 30.0000, 30.0000,  0.0000, -0.0000,  0.0000, 24.00,   0.0
2051, 45925.000,  22.301687359, 114.190186084,    4.8402,  5, 15, 30.0000, 30.0000, 30.0000,  0.0000,  0.0000,  0.0000, 25.00,   0.0
2051, 45926.000,  22.301721562, 114.190174435,    4.3908,  5, 15, 30.0000, 30.0000, 30.0000,  0.0000,  0.0000,  0.0000, 26.00,   0.0
2051, 45927.000,  22.301748693, 114.190159552,    2.0397,  5, 15, 30.0000, 30.0000, 30.0000,  0.0000,  0.0000,  0.0000, 27.00,   0.0
2051, 45928.000,  22.301783282, 114.190146510,    1.7545,  5, 15, 30.0000, 30.0000, 30.0000,  0.0000,  0.0000,  0.0000, 28.00,   0.0
2051, 45929.000,  22.301820774, 114.190130532,    2.5383,  5, 15, 30.0000, 30.0000, 30.0000,  0.0000,  0.0000,  0.0000, 29.00,   0.0
2051, 45930.000,  22.301856216, 114.190114888,    2.5886,  5, 15, 30.0000, 30.0000, 30.0000,  0.0000,  0.0000,  0.0000, -0.00,   0.0
2051, 45931.000,  22.301889853, 114.190101035,    2.4268,  5, 15, 30.0000, 30.0000, 30.0000,  0.0000,  0.0000,  0.0000,  1.00,   0.0
2051, 45932.000,  22.301921523, 114.190084733,    2.2895,  5, 15, 30.0000, 30.0000, 30.0000, -0.0000, -0.0000,  0.0000,  2.00,   0.0
2051, 45933.000,  22.301953081, 114.190068033,    2.2637,  5, 15, 30.0000, 30.0000, 30.0000,  0.0000,  0.0000,  0.0000,  3.00,   0.0
2051, 45934.000,  22.301985811, 114.190051651,    1.6578,  5, 15, 30.0000, 30.0000, 30.0000, -0.0000,  0.0000,  0.0000,  4.00,   0.0
2051, 45935.000,  22.302020810, 114.190035957,    1.2821,  5, 15, 30.0000, 30.0000, 30.0000,  0.0000,  0.0000,  0.0000,  5.00,   0.0
2051, 45936.000,  22.302053374, 114.190018582,    1.3653,  5, 15, 30.0000, 30.0000, 30.0000,  0.0000,  0.0000,  0.0000,  6.00,   0.0
2051, 45937.000,  22.302085080, 114.190004407,    0.6388,  5, 15, 30.0000, 30.0000, 30.0000,  0.0000,  0.0000,  0.0000,  7.00,   0.0
2051, 45938.000,  22.302118485, 114.189987951,    0.5296,  5, 15, 30.0000, 30.0000, 30.0000,  0.0000,  0.0000,  0.0000,  8.00,   0.0
2051, 45939.000,  22.302153577, 114.189966933,   -0.5761,  5, 14, 30.0000, 30.0000, 30.0000,  0.0000,  0.0000,  0.0000,  9.00,   0.0
2051, 45940.000,  22.302185022, 114.189948615,   -0.9465,  5, 14, 30.0000, 30.0000, 30.0000, -0.0000,  0.0000,  0.0000, 10.00,   0.0
2051, 45941.000,  22.302208889, 114.189929120,   -0.4714,  5, 14, 30.0000, 30.0000, 30.0000, -0.0000,  0.0000,  0.0000, 11.00,   0.0
2051, 45942.000,  22.302215163, 114.189907352,   -1.9514,  5, 14, 30.0000, 30.0000, 30.0000,  0.0000, -0.0000,  0.0000, 12.00,   0.0
2051, 45943.000,  22.302229154, 114.189868795,   -4.0667,  5, 14, 30.0000, 30.0000, 30.0000,  0.0000,  0.0000,  0.0000, 13.00,   0.0
2051, 45944.000,  22.302252414, 114.189822572,   -5.9067,  5, 14, 30.0000, 30.0000, 30.0000,  0.0000,  0.0000,  0.0000, 14.00,   0.0
2051, 45945.000,  22.302262348, 114.189784926,   -5.2313,  5, 14, 30.0000, 30.0000, 30.0000,  0.0000,  0.0000, -0.0000, 15.00,   0.0
2051, 45946.000,  22.302258473, 114.189755281,   -6.0035,  5, 14, 30.0000, 30.0000, 30.0000,  0.0000, -0.0000, -0.0000, 16.00,   0.0
2051, 45947.000,  22.302259115, 114.189721299,   -3.3499,  5, 14, 30.0000, 30.0000, 30.0000,  0.0000,  0.0000,  0.0000, 17.00,   0.0
2051, 45948.000,  22.302252225, 114.189683490,   -3.0423,  5, 14, 30.0000, 30.0000, 30.0000, -0.0000,  0.0000,  0.0000, 18.00,   0.0
2051, 45949.000,  22.302230426, 114.189653395,   -4.5517,  5, 14, 30.0000, 30.0000, 30.0000,  0.0000,  0.0000,  0.0000, 19.00,   0.0
2051, 45950.000,  22.302221261, 114.189617837,   -1.2865,  5, 14, 30.0000, 30.0000, 30.0000,  0.0000,  0.0000,  0.0000, 20.00,   0.0
2051, 45951.000,  22.302220261, 114.189593775,    0.3138,  5, 14, 30.0000, 30.0000, 30.0000, -0.0000, -0.0000, -0.0000, 21.00,   0.0
2051, 45952.000,  22.302189078, 114.189549650,    0.7522,  5, 14, 30.0000, 30.0000, 30.0000,  0.0000, -0.0000, -0.0000, 22.00,   0.0
2051, 45956.000,  22.302069850, 114.189368097,    1.2168,  5, 11, 30.0000, 30.0000, 30.0000,  0.0000, -0.0000,  0.0000, 26.00,   0.0
2051, 45957.000,  22.302057127, 114.189325877,    3.1221,  5, 12, 30.0000, 30.0000, 30.0000,  0.0000,  0.0000,  0.0000, 27.00,   0.0
2051, 45958.000,  22.302030653, 114.189277647,    0.9876,  5, 12, 30.0000, 30.0000, 30.0000,  0.0000, -0.0000,  0.0000, 28.00,   0.0
2051, 45959.000,  22.302029875, 114.189234293,    2.5139,  5, 12, 30.0000, 30.0000, 30.0000,  0.0000,  0.0000,  0.0000, 29.00,   0.0
2051, 45960.000,  22.302027672, 114.189193648,    3.3637,  5, 12, 30.0000, 30.0000, 30.0000,  0.0000, -0.0000,  0.0000, -0.00,   0.0
2051, 45961.000,  22.302014833, 114.189148837,    0.4121,  5, 12, 30.0000, 30.0000, 30.0000,  0.0000,  0.0000,  0.0000,  1.00,   0.0
2051, 45962.000,  22.302021999, 114.189099149,    1.4868,  5, 12, 30.0000, 30.0000, 30.0000,  0.0000,  0.0000,  0.0000,  2.00,   0.0
2051, 45963.000,  22.302044105, 114.189065609,    3.3382,  5, 12, 30.0000, 30.0000, 30.0000,  0.0000,  0.0000,  0.0000,  3.00,   0.0
2051, 45964.000,  22.302030768, 114.189010418,    5.8476,  5, 10, 30.0000, 30.0000, 30.0000,  0.0000,  0.0000, -0.0000,  4.00,   0.0
2051, 45965.000,  22.302048328, 114.188963622,    1.1458,  5,  9, 30.0000, 30.0000, 30.0000,  0.0000,  0.0000,  0.0000,  5.00,   0.0
2051, 45966.000,  22.302084066, 114.188927191,    7.9873,  5,  9, 30.0000, 30.0000, 30.0000,  0.0000,  0.0000,  0.0000,  6.00,   0.0
2051, 45967.000,  22.302081319, 114.188915528,    4.6092,  5,  9, 30.0000, 30.0000, 30.0000,  0.0000,  0.0000,  0.0000,  7.00,   0.0
2051, 45968.000,  22.302134771, 114.188905547,    0.0908,  5,  8, 30.0000, 30.0000, 30.0000,  0.0000,  0.0000,  0.0000,  8.00,   0.0
2051, 45969.000,  22.302177573, 114.188899092,    1.4694,  5,  9, 30.0000, 30.0000, 30.0000,  0.0000,  0.0000,  0.0000,  9.00,   0.0
2051, 45970.000,  22.302195258, 114.188871009,  -10.1401,  5,  9, 30.0000, 30.0000, 30.0000,  0.0000,  0.0000,  0.0000, 10.00,   0.0
2051, 45971.000,  22.302219578, 114.188829495,  -10.5085,  5,  9, 30.0000, 30.0000, 30.0000,  0.0000, -0.0000, -0.0000, 11.00,   0.0
2051, 45972.000,  22.302215916, 114.188776942,   13.4387,  5,  9, 30.0000, 30.0000, 30.0000,  0.0000,  0.0000,  0.0000, 12.00,   0.0
2051, 45973.000,  22.302220170, 114.188762816,   18.1678,  5,  9, 30.0000, 30.0000, 30.0000, -0.0000,  0.0000,  0.0000, 13.00,   0.0
2051, 45974.000,  22.302191499, 114.188749510,    7.0774,  5,  9, 30.0000, 30.0000, 30.0000,  0.0000,  0.0000,  0.0000, 14.00,   0.0
2051, 45975.000,  22.302172122, 114.188731062,   21.8839,  5, 10, 30.0000, 30.0000, 30.0000,  0.0000,  0.0000,  0.0000, 15.00,   0.0
2051, 45976.000,  22.302170579, 114.188718858,   -9.0072,  5,  9, 30.0000, 30.0000, 30.0000,  0.0000, -0.0000, -0.0000, 16.00,   0.0
2051, 45977.000,  22.302136302, 114.188700521,  -12.1632,  5, 12, 30.0000, 30.0000, 30.0000,  0.0000,  0.0000,  0.0000, 17.00,   0.0
2051, 45978.000,  22.302145194, 114.188750712,  -10.7652,  5, 12, 30.0000, 30.0000, 30.0000,  0.0000,  0.0000,  0.0000, 18.00,   0.0
2051, 45980.000,  22.302158546, 114.188713004,   10.6580,  5, 12, 30.0000, 30.0000, 30.0000,  0.0000,  0.0000, -0.0000, 20.00,   0.0
2051, 45981.000,  22.302163276, 114.188719392,   14.5514,  5, 12, 30.0000, 30.0000, 30.0000,  0.0000,  0.0000,  0.0000, 21.00,   0.0
2051, 45982.000,  22.302147474, 114.188718749,    7.5718,  5, 12, 30.0000, 30.0000, 30.0000,  0.0000,  0.0000,  0.0000, 22.00,   0.0
2051, 45995.000,  22.302162477, 114.188726611,    2.1264,  5, 13, 30.0000, 30.0000, 30.0000, -0.0000,  0.0000,  0.0000,  5.00,   0.0
2051, 45996.000,  22.302166972, 114.188727134,   11.0219,  5, 13, 30.0000, 30.0000, 30.0000,  0.0000, -0.0000,  0.0000,  6.00,   0.0
2051, 45997.000,  22.302169980, 114.188719348,   17.2184,  5, 13, 30.0000, 30.0000, 30.0000,  0.0000,  0.0000, -0.0000,  7.00,   0.0
2051, 46007.000,  22.302187760, 114.188696824,   31.2226,  5, 13, 30.0000, 30.0000, 30.0000,  0.0000, -0.0000, -0.0000, 17.00,   0.0
2051, 46008.000,  22.302178005, 114.188700403,   22.1491,  5, 13, 30.0000, 30.0000, 30.0000,  0.0000,  0.0000,  0.0000, 18.00,   0.0
2051, 46013.000,  22.302172438, 114.188697072,    6.3641,  5, 13, 30.0000, 30.0000, 30.0000, -0.0000,  0.0000, -0.0000, 23.00,   0.0
2051, 46014.000,  22.302148927, 114.188712678,   -4.2481,  5, 14, 30.0000, 30.0000, 30.0000, -0.0000,  0.0000, -0.0000, 24.00,   0.0
2051, 46015.000,  22.302147970, 114.188704673,   -6.1616,  5, 14, 30.0000, 30.0000, 30.0000,  0.0000,  0.0000,  0.0000, 25.00,   0.0
2051, 46016.000,  22.302141715, 114.188713957,  -10.0951,  5, 14, 30.0000, 30.0000, 30.0000, -0.0000,  0.0000, -0.0000, 26.00,   0.0
2051, 46017.000,  22.302161064, 114.188706358,    2.7789,  5, 13, 30.0000, 30.0000, 30.0000,  0.0000,  0.0000, -0.0000, 27.00,   0.0
2051, 46018.000,  22.302165470, 114.188712800,    0.0954,  5, 13, 30.0000, 30.0000, 30.0000, -0.0000,  0.0000,  0.0000, 28.00,   0.0
2051, 46019.000,  22.302161339, 114.188705662,   -1.6961,  5, 13, 30.0000, 30.0000, 30.0000, -0.0000,  0.0000,  0.0000, 29.00,   0.0
2051, 46020.000,  22.302161741, 114.188715101,    2.4563,  5, 13, 30.0000, 30.0000, 30.0000,  0.0000,  0.0000,  0.0000, -0.00,   0.0
2051, 46021.000,  22.302159030, 114.188723832,   -2.9476,  5, 13, 30.0000, 30.0000, 30.0000,  0.0000,  0.0000, -0.0000,  1.00,   0.0
2051, 46022.000,  22.302161366, 114.188731166,   -5.2275,  5, 13, 30.0000, 30.0000, 30.0000, -0.0000, -0.0000, -0.0000,  2.00,   0.0
2051, 46024.000,  22.302162656, 114.188727239,   -8.0468,  5, 13, 30.0000, 30.0000, 30.0000,  0.0000,  0.0000,  0.0000,  4.00,   0.0
2051, 46034.000,  22.302149541, 114.188705829,    5.4787,  5, 12, 30.0000, 30.0000, 30.0000, -0.0000,  0.0000,  0.0000, 14.00,   0.0
2051, 46035.000,  22.302123518, 114.188702410,   -4.3019,  5, 13, 30.0000, 30.0000, 30.0000,  0.0000,  0.0000,  0.0000, 15.00,   0.0
2051, 46036.000,  22.302128561, 114.188694371,   -2.2707,  5, 13, 30.0000, 30.0000, 30.0000,  0.0000,  0.0000,  0.0000, 16.00,   0.0
2051, 46037.000,  22.302088955, 114.188654258,   12.5780,  5, 14, 30.0000, 30.0000, 30.0000,  0.0000,  0.0000,  0.0000, 17.00,   0.0
2051, 46039.000,  22.302015770, 114.188690462,    5.9986,  5, 13, 30.0000, 30.0000, 30.0000,  0.0000, -0.0000,  0.0000, 19.00,   0.0
2051, 46040.000,  22.302006199, 114.188676046,   21.5957,  5, 13, 30.0000, 30.0000, 30.0000, -0.0000,  0.0000, -0.0000, 20.00,   0.0
2051, 46041.000,  22.301994647, 114.188626382,   36.4942,  5, 13, 30.0000, 30.0000, 30.0000, -0.0000,  0.0000, -0.0000, 21.00,   0.0
2051, 46081.000,  22.301821017, 114.188477043,  -47.3480,  5, 10, 30.0000, 30.0000, 30.0000, -0.0000, -0.0000, -0.0000,  1.00,   0.0
2051, 46082.000,  22.301896111, 114.188472955,  -34.8946,  5, 10, 30.0000, 30.0000, 30.0000,  0.0000,  0.0000,  0.0000,  2.00,   0.0
2051, 46083.000,  22.301974718, 114.188503520,  -15.7221,  5,  9, 30.0000, 30.0000, 30.0000,  0.0000,  0.0000, -0.0000,  3.00,   0.0
2051, 46084.000,  22.302136335, 114.188501647,  -16.3415,  5,  8, 30.0000, 30.0000, 30.0000,  0.0000,  0.0000, -0.0000,  4.00,   0.0
2051, 46093.000,  22.302624525, 114.188519856,   -7.8044,  5,  9, 30.0000, 30.0000, 30.0000,  0.0000,  0.0000,  0.0000, 13.00,   0.0
2051, 46094.000,  22.302673376, 114.188512551,    1.1172,  5,  9, 30.0000, 30.0000, 30.0000, -0.0000,  0.0000,  0.0000, 14.00,   0.0
2051, 46095.000,  22.302616214, 114.188512736,   -0.3551,  5,  8, 30.0000, 30.0000, 30.0000,  0.0000, -0.0000, -0.0000, 15.00,   0.0
2051, 46096.000,  22.302612708, 114.188480286,    1.8890,  5,  8, 30.0000, 30.0000, 30.0000, -0.0000, -0.0000, -0.0000, 16.00,   0.0
2051, 46097.000,  22.302635100, 114.188466730,    8.9187,  5,  8, 30.0000, 30.0000, 30.0000,  0.0000, -0.0000, -0.0000, 17.00,   0.0
2051, 46098.000,  22.302654071, 114.188532370,   15.3198,  5,  9, 30.0000, 30.0000, 30.0000,  0.0000, -0.0000,  0.0000, 18.00,   0.0
2051, 46099.000,  22.302648902, 114.188545276,   15.6813,  5,  9, 30.0000, 30.0000, 30.0000,  0.0000,  0.0000,  0.0000, 19.00,   0.0
2051, 46100.000,  22.302609735, 114.188524201,    6.3466,  5,  9, 30.0000, 30.0000, 30.0000,  0.0000, -0.0000,  0.0000, 20.00,   0.0
2051, 46101.000,  22.302586296, 114.188529759,    8.1265,  5,  9, 30.0000, 30.0000, 30.0000,  0.0000,  0.0000, -0.0000, 21.00,   0.0
2051, 46102.000,  22.302542726, 114.188535663,   -2.1592,  5, 10, 30.0000, 30.0000, 30.0000,  0.0000,  0.0000,  0.0000, 22.00,   0.0
2051, 46103.000,  22.302575608, 114.188533321,   -9.5317,  5, 10, 30.0000, 30.0000, 30.0000,  0.0000,  0.0000, -0.0000, 23.00,   0.0
2051, 46104.000,  22.302582594, 114.188550624,   -5.7127,  5, 10, 30.0000, 30.0000, 30.0000, -0.0000,  0.0000,  0.0000, 24.00,   0.0
2051, 46105.000,  22.302635331, 114.188534826,  -13.2384,  5, 10, 30.0000, 30.0000, 30.0000,  0.0000,  0.0000, -0.0000, 25.00,   0.0
2051, 46106.000,  22.302683671, 114.188500690,  -12.4612,  5, 10, 30.0000, 30.0000, 30.0000,  0.0000,  0.0000,  0.0000, 26.00,   0.0
2051, 46107.000,  22.302713740, 114.188556913,   -1.9304,  5, 12, 30.0000, 30.0000, 30.0000, -0.0000,  0.0000,  0.0000, 27.00,   0.0
2051, 46108.000,  22.302774578, 114.188519828,  -18.8339,  5, 12, 30.0000, 30.0000, 30.0000,  0.0000, -0.0000,  0.0000, 28.00,   0.0
2051, 46109.000,  22.302814816, 114.188504166,  -11.0810,  5, 13, 30.0000, 30.0000, 30.0000,  0.0000,  0.0000,  0.0000, 29.00,   0.0
2051, 46111.000,  22.302953062, 114.188407332,   -4.9379,  5, 12, 30.0000, 30.0000, 30.0000,  0.0000,  0.0000,  0.0000,  1.00,   0.0
2051, 46113.000,  22.303068604, 114.188306309,    9.3118,  5, 15, 30.0000, 30.0000, 30.0000, -0.0000,  0.0000, -0.0000,  3.00,   0.0
2051, 46114.000,  22.303089844, 114.188233993,    1.7116,  5, 15, 30.0000, 30.0000, 30.0000, -0.0000,  0.0000,  0.0000,  4.00,   0.0
2051, 46115.000,  22.303157023, 114.188162343,    6.7167,  5, 13, 30.0000, 30.0000, 30.0000, -0.0000,  0.0000, -0.0000,  5.00,   0.0
2051, 46150.000,  22.304692950, 114.186053702,   16.7065,  5, 10, 30.0000, 30.0000, 30.0000,  0.0000,  0.0000, -0.0000, 10.00,   0.0
2051, 46151.000,  22.304691256, 114.186032239,   26.9828,  5, 11, 30.0000, 30.0000, 30.0000,  0.0000,  0.0000,  0.0000, 11.00,   0.0
2051, 46152.000,  22.304673339, 114.186024667,   19.3039,  5, 11, 30.0000, 30.0000, 30.0000,  0.0000,  0.0000,  0.0000, 12.00,   0.0
2051, 46153.000,  22.304659633, 114.186033151,   14.4830,  5, 12, 30.0000, 30.0000, 30.0000, -0.0000,  0.0000, -0.0000, 13.00,   0.0
2051, 46154.000,  22.304645812, 114.186024422,    4.0930,  5, 12, 30.0000, 30.0000, 30.0000,  0.0000,  0.0000,  0.0000, 14.00,   0.0
2051, 46155.000,  22.304643167, 114.186029544,    3.6443,  5, 12, 30.0000, 30.0000, 30.0000,  0.0000,  0.0000,  0.0000, 15.00,   0.0
2051, 46157.000,  22.304635845, 114.186032887,    2.1823,  5, 12, 30.0000, 30.0000, 30.0000,  0.0000,  0.0000,  0.0000, 17.00,   0.0
2051, 46158.000,  22.304628468, 114.186029470,    0.1531,  5, 12, 30.0000, 30.0000, 30.0000,  0.0000,  0.0000, -0.0000, 18.00,   0.0
2051, 46164.000,  22.304635518, 114.186028444,    1.5361,  5, 12, 30.0000, 30.0000, 30.0000,  0.0000,  0.0000,  0.0000, 24.00,   0.0
2051, 46185.000,  22.304672956, 114.186054388,    4.6068,  5, 12, 30.0000, 30.0000, 30.0000,  0.0000,  0.0000,  0.0000, 15.00,   0.0
2051, 46186.000,  22.304678199, 114.186058749,    4.5259,  5, 12, 30.0000, 30.0000, 30.0000, -0.0000,  0.0000, -0.0000, 16.00,   0.0
2051, 46187.000,  22.304704736, 114.186074900,    7.7756,  5, 11, 30.0000, 30.0000, 30.0000,  0.0000,  0.0000,  0.0000, 17.00,   0.0
2051, 46188.000,  22.304705328, 114.186070841,    9.4312,  5, 11, 30.0000, 30.0000, 30.0000,  0.0000, -0.0000, -0.0000, 18.00,   0.0
2051, 46189.000,  22.304673989, 114.186043746,    7.8936,  5, 12, 30.0000, 30.0000, 30.0000,  0.0000,  0.0000, -0.0000, 19.00,   0.0
2051, 46196.000,  22.304671094, 114.186036262,    9.6366,  5, 12, 30.0000, 30.0000, 30.0000, -0.0000,  0.0000,  0.0000, 26.00,   0.0
2051, 46207.000,  22.304688737, 114.186069886,    3.4726,  5, 11, 30.0000, 30.0000, 30.0000,  0.0000,  0.0000,  0.0000,  7.00,   0.0
2051, 46235.000,  22.304876294, 114.185997524,   10.8205,  5, 13, 30.0000, 30.0000, 30.0000, -0.0000,  0.0000, -0.0000,  5.00,   0.0
2051, 46256.000,  22.305298412, 114.186331103, -148.4907,  5,  5, 30.0000, 30.0000, 30.0000, -0.0000,  0.0000,  0.0000, 26.00,   0.0
2051, 46257.000,  22.305230012, 114.186270987, -226.7024,  5,  5, 30.0000, 30.0000, 30.0000,  0.0000,  0.0000,  0.0000, 27.00,   0.0
2051, 46258.000,  22.305031516, 114.186193695, -247.0784,  5,  5, 30.0000, 30.0000, 30.0000,  0.0000,  0.0000,  0.0000, 28.00,   0.0
2051, 46259.000,  22.305052758, 114.186147600, -221.3509,  5,  5, 30.0000, 30.0000, 30.0000, -0.0000,  0.0000,  0.0000, 29.00,   0.0
2051, 46269.000,  22.305014495, 114.185350491,   -4.4670,  5,  4, 30.0000, 30.0000, 30.0000, -0.0000,  0.0000,  0.0000,  9.00,   0.0
2051, 46279.000,  22.306119238, 114.185241649,   35.3846,  5,  4, 30.0000, 30.0000, 30.0000, -0.0000,  0.0000,  0.0000, 19.00,   0.0
2051, 46280.000,  22.306238388, 114.185273341,   22.0706,  5,  4, 30.0000, 30.0000, 30.0000,  0.0000,  0.0000, -0.0000, 20.00,   0.0
2051, 46281.000,  22.306271715, 114.185218963,   28.7396,  5,  4, 30.0000, 30.0000, 30.0000,  0.0000,  0.0000,  0.0000, 21.00,   0.0
2051, 46285.000,  22.304005353, 114.183440482,  306.9305,  5,  4, 30.0000, 30.0000, 30.0000, -0.0000,  0.0000,  0.0000, 25.00,   0.0
2051, 46286.000,  22.304436386, 114.183691972,  233.2341,  5,  5, 30.0000, 30.0000, 30.0000, -0.0000, -0.0000, -0.0000, 26.00,   0.0
2051, 46287.000,  22.304589275, 114.183677857,  228.8766,  5,  4, 30.0000, 30.0000, 30.0000,  0.0000,  0.0000, -0.0000, 27.00,   0.0
2051, 46292.000,  22.306436550, 114.184753728,  -22.9741,  5,  7, 30.0000, 30.0000, 30.0000, -0.0000,  0.0000,  0.0000,  2.00,   0.0
2051, 46293.000,  22.306606644, 114.184679379,   34.9699,  5,  5, 30.0000, 30.0000, 30.0000,  0.0000,  0.0000,  0.0000,  3.00,   0.0
2051, 46294.000,  22.306581856, 114.184639335,   -3.9833,  5,  9, 30.0000, 30.0000, 30.0000,  0.0000,  0.0000,  0.0000,  4.00,   0.0
2051, 46295.000,  22.306592557, 114.184637799,  -18.4767,  5, 10, 30.0000, 30.0000, 30.0000,  0.0000,  0.0000,  0.0000,  5.00,   0.0
2051, 46298.000,  22.306391039, 114.184341977,   45.5057,  5,  5, 30.0000, 30.0000, 30.0000,  0.0000, -0.0000, -0.0000,  8.00,   0.0
2051, 46352.000,  22.307165028, 114.184438888,   33.0238,  5, 12, 30.0000, 30.0000, 30.0000,  0.0000,  0.0000,  0.0000,  2.00,   0.0
2051, 46353.000,  22.307154230, 114.184420496,   -1.1993,  5, 12, 30.0000, 30.0000, 30.0000,  0.0000,  0.0000,  0.0000,  3.00,   0.0
2051, 46439.000,  22.308172822, 114.184549274,   16.4421,  5, 16, 30.0000, 30.0000, 30.0000, -0.0000,  0.0000,  0.0000, 29.00,   0.0
2051, 46449.000,  22.308568368, 114.183897719,    6.3253,  5, 13, 30.0000, 30.0000, 30.0000, -0.0000,  0.0000, -0.0000,  9.00,   0.0
2051, 46451.000,  22.308618732, 114.183807790,   12.0822,  5, 11, 30.0000, 30.0000, 30.0000,  0.0000,  0.0000, -0.0000, 11.00,   0.0
2051, 46453.000,  22.308616731, 114.183627429,   29.0975,  5, 11, 30.0000, 30.0000, 30.0000,  0.0000, -0.0000,  0.0000, 13.00,   0.0
2051, 46454.000,  22.308616890, 114.183583374,   25.5709,  5, 11, 30.0000, 30.0000, 30.0000,  0.0000,  0.0000,  0.0000, 14.00,   0.0
2051, 46455.000,  22.308635971, 114.183537014,   25.9275,  5, 11, 30.0000, 30.0000, 30.0000,  0.0000,  0.0000,  0.0000, 15.00,   0.0
2051, 46460.000,  22.308685565, 114.183356276,   26.3878,  5, 13, 30.0000, 30.0000, 30.0000, -0.0000,  0.0000,  0.0000, 20.00,   0.0
2051, 46461.000,  22.308655735, 114.183261961,   17.1884,  5, 13, 30.0000, 30.0000, 30.0000, -0.0000,  0.0000,  0.0000, 21.00,   0.0
2051, 46462.000,  22.308633152, 114.183197260,   19.3723,  5, 14, 30.0000, 30.0000, 30.0000,  0.0000,  0.0000, -0.0000, 22.00,   0.0
2051, 46463.000,  22.308555987, 114.183128136,    5.7564,  5, 14, 30.0000, 30.0000, 30.0000,  0.0000, -0.0000,  0.0000, 23.00,   0.0
2051, 46464.000,  22.308538986, 114.183056990,    5.2626,  5, 14, 30.0000, 30.0000, 30.0000,  0.0000, -0.0000,  0.0000, 23.99,   0.0
2051, 46465.000,  22.308450366, 114.182970117,    2.5020,  5, 11, 30.0000, 30.0000, 30.0000,  0.0000,  0.0000,  0.0000, 24.99,   0.0
2051, 46466.000,  22.308397597, 114.182864200,   -6.7683,  5, 11, 30.0000, 30.0000, 30.0000,  0.0000,  0.0000,  0.0000, 25.99,   0.0
2051, 46467.000,  22.308352956, 114.182796124,    6.0361,  5, 12, 30.0000, 30.0000, 30.0000,  0.0000,  0.0000, -0.0000, 26.99,   0.0
2051, 46468.000,  22.308334071, 114.182692282,    4.4269,  5, 13, 30.0000, 30.0000, 30.0000, -0.0000, -0.0000,  0.0000, 27.99,   0.0
2051, 46469.000,  22.308304870, 114.182603705,    2.2846,  5, 13, 30.0000, 30.0000, 30.0000,  0.0000,  0.0000, -0.0000, 28.99,   0.0
2051, 46471.000,  22.308147253, 114.182431763,    1.1798,  5, 12, 30.0000, 30.0000, 30.0000,  0.0000,  0.0000,  0.0000,  0.99,   0.0
2051, 46472.000,  22.308100182, 114.182335228,   -7.2060,  5, 12, 30.0000, 30.0000, 30.0000,  0.0000,  0.0000,  0.0000,  1.99,   0.0
2051, 46473.000,  22.308019061, 114.182252193,   -1.3356,  5, 13, 30.0000, 30.0000, 30.0000, -0.0000, -0.0000,  0.0000,  2.99,   0.0
2051, 46474.000,  22.308000067, 114.182176414,    1.2135,  5, 14, 30.0000, 30.0000, 30.0000,  0.0000,  0.0000, -0.0000,  3.99,   0.0
2051, 46475.000,  22.307960678, 114.182098416,    5.8731,  5, 15, 30.0000, 30.0000, 30.0000, -0.0000,  0.0000, -0.0000,  4.99,   0.0
2051, 46476.000,  22.307889866, 114.182024509,    1.6847,  5, 17, 30.0000, 30.0000, 30.0000,  0.0000,  0.0000, -0.0000,  5.99,   0.0
2051, 46477.000,  22.307854589, 114.181958779,   13.3186,  5, 18, 30.0000, 30.0000, 30.0000, -0.0000,  0.0000,  0.0000,  6.99,   0.0
2051, 46478.000,  22.307791309, 114.181883441,   10.0796,  5, 19, 30.0000, 30.0000, 30.0000,  0.0000,  0.0000,  0.0000,  7.99,   0.0
2051, 46479.000,  22.307746692, 114.181826311,    9.6525,  5, 18, 30.0000, 30.0000, 30.0000, -0.0000,  0.0000,  0.0000,  8.99,   0.0
2051, 46480.000,  22.307687981, 114.181754386,   13.7240,  5, 19, 30.0000, 30.0000, 30.0000,  0.0000,  0.0000, -0.0000,  9.99,   0.0
2051, 46481.000,  22.307649926, 114.181694843,    9.2692,  5, 19, 30.0000, 30.0000, 30.0000,  0.0000,  0.0000,  0.0000, 10.99,   0.0
2051, 46482.000,  22.307610783, 114.181625399,   13.5599,  5, 19, 30.0000, 30.0000, 30.0000,  0.0000, -0.0000, -0.0000, 11.99,   0.0
2051, 46483.000,  22.307554348, 114.181548044,   12.1096,  5, 19, 30.0000, 30.0000, 30.0000,  0.0000,  0.0000,  0.0000, 12.99,   0.0
2051, 46484.000,  22.307503659, 114.181473639,   12.4129,  5, 19, 30.0000, 30.0000, 30.0000,  0.0000,  0.0000, -0.0000, 13.99,   0.0
2051, 46485.000,  22.307447497, 114.181404814,   12.2535,  5, 19, 30.0000, 30.0000, 30.0000,  0.0000,  0.0000, -0.0000, 14.99,   0.0
2051, 46486.000,  22.307376614, 114.181328265,   12.7140,  5, 19, 30.0000, 30.0000, 30.0000,  0.0000,  0.0000, -0.0000, 15.99,   0.0
2051, 46487.000,  22.307304330, 114.181254620,   12.6944,  5, 19, 30.0000, 30.0000, 30.0000,  0.0000,  0.0000,  0.0000, 17.00,   0.0
2051, 46488.000,  22.307236105, 114.181185885,   13.7260,  5, 19, 30.0000, 30.0000, 30.0000, -0.0000, -0.0000,  0.0000, 18.00,   0.0
2051, 46489.000,  22.307158683, 114.181102477,    8.3500,  5, 18, 30.0000, 30.0000, 30.0000, -0.0000,  0.0000,  0.0000, 19.00,   0.0
2051, 46490.000,  22.307087519, 114.181040753,   -4.1593,  5, 19, 30.0000, 30.0000, 30.0000,  0.0000, -0.0000,  0.0000, 20.00,   0.0
2051, 46492.000,  22.306921183, 114.180893141,   -1.1943,  5, 16, 30.0000, 30.0000, 30.0000,  0.0000,  0.0000,  0.0000, 22.00,   0.0
2051, 46493.000,  22.306840332, 114.180832352,   -6.3283,  5, 15, 30.0000, 30.0000, 30.0000, -0.0000,  0.0000,  0.0000, 23.00,   0.0
2051, 46509.000,  22.305888834, 114.179860768,    3.7006,  5, 15, 30.0000, 30.0000, 30.0000, -0.0000,  0.0000,  0.0000,  9.00,   0.0
2051, 46510.000,  22.305853211, 114.179890512,   31.6681,  5, 16, 30.0000, 30.0000, 30.0000,  0.0000, -0.0000, -0.0000, 10.00,   0.0
2051, 46526.000,  22.305296647, 114.178622818,    9.3172,  5, 17, 30.0000, 30.0000, 30.0000,  0.0000,  0.0000,  0.0000, 25.99,   0.0
2051, 46527.000,  22.305224783, 114.178582699,   11.7919,  5, 18, 30.0000, 30.0000, 30.0000,  0.0000,  0.0000,  0.0000, 26.99,   0.0
2051, 46528.000,  22.305130401, 114.178552099,    8.1091,  5, 19, 30.0000, 30.0000, 30.0000,  0.0000,  0.0000,  0.0000, 27.99,   0.0
2051, 46529.000,  22.305037101, 114.178517954,    4.9014,  5, 19, 30.0000, 30.0000, 30.0000, -0.0000,  0.0000, -0.0000, 29.00,   0.0
2051, 46530.000,  22.304943543, 114.178496085,    1.1677,  5, 19, 30.0000, 30.0000, 30.0000, -0.0000,  0.0000,  0.0000,  0.00,   0.0
2051, 46531.000,  22.304835145, 114.178453391,    9.7292,  5, 19, 30.0000, 30.0000, 30.0000,  0.0000,  0.0000, -0.0000,  1.00,   0.0
2051, 46532.000,  22.304741963, 114.178429464,   14.3520,  5, 19, 30.0000, 30.0000, 30.0000,  0.0000,  0.0000,  0.0000,  2.00,   0.0
2051, 46533.000,  22.304635345, 114.178397223,   12.4696,  5, 19, 30.0000, 30.0000, 30.0000,  0.0000,  0.0000, -0.0000,  3.00,   0.0
2051, 46534.000,  22.304546851, 114.178375676,   13.1838,  5, 19, 30.0000, 30.0000, 30.0000, -0.0000,  0.0000,  0.0000,  4.00,   0.0
2051, 46535.000,  22.304452210, 114.178350018,    9.0121,  5, 19, 30.0000, 30.0000, 30.0000, -0.0000, -0.0000,  0.0000,  5.00,   0.0
2051, 46536.000,  22.304363535, 114.178319512,   10.0030,  5, 19, 30.0000, 30.0000, 30.0000,  0.0000,  0.0000,  0.0000,  6.00,   0.0
2051, 46537.000,  22.304271515, 114.178302774,    6.8998,  5, 19, 30.0000, 30.0000, 30.0000,  0.0000,  0.0000, -0.0000,  7.00,   0.0
2051, 46538.000,  22.304182416, 114.178274116,   10.1834,  5, 19, 30.0000, 30.0000, 30.0000, -0.0000,  0.0000,  0.0000,  8.00,   0.0
2051, 46539.000,  22.304091974, 114.178247479,    9.5977,  5, 19, 30.0000, 30.0000, 30.0000, -0.0000,  0.0000,  0.0000,  9.00,   0.0
2051, 46540.000,  22.304012471, 114.178213795,   11.9576,  5, 19, 30.0000, 30.0000, 30.0000,  0.0000,  0.0000, -0.0000, 10.00,   0.0
2051, 46541.000,  22.303949683, 114.178160023,   11.7671,  5, 19, 30.0000, 30.0000, 30.0000,  0.0000,  0.0000,  0.0000, 11.00,   0.0
2051, 46542.000,  22.303868720, 114.178117891,    1.2152,  5, 18, 30.0000, 30.0000, 30.0000,  0.0000,  0.0000,  0.0000, 12.00,   0.0
2051, 46543.000,  22.303781369, 114.178065054,    2.1073,  5, 17, 30.0000, 30.0000, 30.0000, -0.0000,  0.0000, -0.0000, 13.00,   0.0
2051, 46544.000,  22.303723803, 114.178011506,    6.4621,  5, 17, 30.0000, 30.0000, 30.0000,  0.0000,  0.0000, -0.0000, 14.00,   0.0
2051, 46545.000,  22.303661608, 114.177953157,    8.0240,  5, 17, 30.0000, 30.0000, 30.0000,  0.0000,  0.0000,  0.0000, 15.00,   0.0
2051, 46546.000,  22.303616294, 114.177881342,    3.8446,  5, 16, 30.0000, 30.0000, 30.0000,  0.0000,  0.0000, -0.0000, 16.00,   0.0
2051, 46547.000,  22.303548573, 114.177838568,    4.9825,  5, 16, 30.0000, 30.0000, 30.0000,  0.0000,  0.0000, -0.0000, 17.00,   0.0
2051, 46548.000,  22.303500166, 114.177772828,    5.2017,  5, 17, 30.0000, 30.0000, 30.0000,  0.0000, -0.0000,  0.0000, 18.00,   0.0
2051, 46549.000,  22.303442316, 114.177733837,    7.4202,  5, 17, 30.0000, 30.0000, 30.0000, -0.0000,  0.0000,  0.0000, 19.00,   0.0
2051, 46550.000,  22.303402676, 114.177676504,   10.1522,  5, 16, 30.0000, 30.0000, 30.0000,  0.0000,  0.0000,  0.0000, 20.00,   0.0
2051, 46551.000,  22.303341297, 114.177653099,   -0.4717,  5, 15, 30.0000, 30.0000, 30.0000,  0.0000,  0.0000,  0.0000, 21.00,   0.0
2051, 46552.000,  22.303302895, 114.177606801,    1.9350,  5, 16, 30.0000, 30.0000, 30.0000,  0.0000, -0.0000,  0.0000, 22.00,   0.0
2051, 46553.000,  22.303259473, 114.177586393,    0.5515,  5, 13, 30.0000, 30.0000, 30.0000,  0.0000,  0.0000, -0.0000, 23.00,   0.0
2051, 46554.000,  22.303240232, 114.177525991,   17.1616,  5, 16, 30.0000, 30.0000, 30.0000,  0.0000,  0.0000,  0.0000, 24.00,   0.0
2051, 46555.000,  22.303210559, 114.177500801,    7.6088,  5, 17, 30.0000, 30.0000, 30.0000,  0.0000,  0.0000, -0.0000, 25.00,   0.0
2051, 46556.000,  22.303169225, 114.177486094,   10.1582,  5, 17, 30.0000, 30.0000, 30.0000,  0.0000,  0.0000,  0.0000, 26.00,   0.0
2051, 46557.000,  22.303130396, 114.177469103,    9.1229,  5, 13, 30.0000, 30.0000, 30.0000,  0.0000,  0.0000,  0.0000, 27.00,   0.0
2051, 46558.000,  22.303116273, 114.177476197,    8.8226,  5, 17, 30.0000, 30.0000, 30.0000, -0.0000,  0.0000,  0.0000, 28.00,   0.0
2051, 46559.000,  22.303085452, 114.177447983,   12.1126,  5, 19, 30.0000, 30.0000, 30.0000, -0.0000, -0.0000,  0.0000, 29.00,   0.0
2051, 46560.000,  22.303074093, 114.177436310,   14.3317,  5, 19, 30.0000, 30.0000, 30.0000,  0.0000,  0.0000,  0.0000,  0.00,   0.0
2051, 46561.000,  22.303078426, 114.177485327,    8.9180,  5, 19, 30.0000, 30.0000, 30.0000,  0.0000,  0.0000,  0.0000,  1.00,   0.0
2051, 46562.000,  22.303069104, 114.177498911,    9.3458,  5, 16, 30.0000, 30.0000, 30.0000, -0.0000,  0.0000,  0.0000,  2.00,   0.0
2051, 46563.000,  22.303082758, 114.177508841,    9.3121,  5, 16, 30.0000, 30.0000, 30.0000,  0.0000,  0.0000,  0.0000,  3.00,   0.0
2051, 46564.000,  22.303083528, 114.177491993,    9.2710,  5, 15, 30.0000, 30.0000, 30.0000,  0.0000,  0.0000,  0.0000,  4.00,   0.0
2051, 46565.000,  22.303101767, 114.177491416,   12.8894,  5, 16, 30.0000, 30.0000, 30.0000,  0.0000,  0.0000, -0.0000,  5.00,   0.0
2051, 46566.000,  22.303085960, 114.177490666,   11.9181,  5, 16, 30.0000, 30.0000, 30.0000,  0.0000,  0.0000,  0.0000,  6.00,   0.0
2051, 46568.000,  22.303101031, 114.177493200,    9.1579,  5, 16, 30.0000, 30.0000, 30.0000, -0.0000,  0.0000,  0.0000,  8.00,   0.0
2051, 46569.000,  22.303100168, 114.177497458,    7.1394,  5, 16, 30.0000, 30.0000, 30.0000,  0.0000,  0.0000,  0.0000,  9.00,   0.0
2051, 46570.000,  22.303106555, 114.177505620,    9.4691,  5, 16, 30.0000, 30.0000, 30.0000,  0.0000,  0.0000,  0.0000, 10.00,   0.0
2051, 46571.000,  22.303103090, 114.177499319,   10.8664,  5, 16, 30.0000, 30.0000, 30.0000,  0.0000,  0.0000,  0.0000, 11.00,   0.0
2051, 46572.000,  22.303117510, 114.177490936,   15.4990,  5, 16, 30.0000, 30.0000, 30.0000,  0.0000,  0.0000,  0.0000, 12.00,   0.0
2051, 46574.000,  22.303106529, 114.177481361,   15.0148,  5, 15, 30.0000, 30.0000, 30.0000,  0.0000,  0.0000,  0.0000, 14.00,   0.0
2051, 46575.000,  22.303105367, 114.177488789,   10.6903,  5, 15, 30.0000, 30.0000, 30.0000,  0.0000,  0.0000,  0.0000, 15.00,   0.0
2051, 46576.000,  22.303108318, 114.177480859,   17.6887,  5, 15, 30.0000, 30.0000, 30.0000, -0.0000, -0.0000,  0.0000, 16.00,   0.0
2051, 46577.000,  22.303109528, 114.177484149,   23.5069,  5, 14, 30.0000, 30.0000, 30.0000,  0.0000,  0.0000,  0.0000, 17.00,   0.0
2051, 46579.000,  22.303116065, 114.177484889,   19.7859,  5, 15, 30.0000, 30.0000, 30.0000, -0.0000,  0.0000,  0.0000, 19.00,   0.0
2051, 46580.000,  22.303121444, 114.177483578,   18.8873,  5, 15, 30.0000, 30.0000, 30.0000,  0.0000,  0.0000,  0.0000, 20.00,   0.0
2051, 46582.000,  22.303128551, 114.177487518,   21.5212,  5, 16, 30.0000, 30.0000, 30.0000,  0.0000,  0.0000, -0.0000, 22.00,   0.0
2051, 46585.000,  22.303132880, 114.177491913,   14.5568,  5, 15, 30.0000, 30.0000, 30.0000,  0.0000,  0.0000, -0.0000, 25.00,   0.0
2051, 46586.000,  22.303130508, 114.177491254,   12.8097,  5, 15, 30.0000, 30.0000, 30.0000, -0.0000,  0.0000,  0.0000, 26.00,   0.0
2051, 46587.000,  22.303116387, 114.177488507,   10.7540,  5, 16, 30.0000, 30.0000, 30.0000,  0.0000,  0.0000,  0.0000, 27.00,   0.0
2051, 46588.000,  22.303107165, 114.177499771,   13.9409,  5, 16, 30.0000, 30.0000, 30.0000,  0.0000,  0.0000, -0.0000, 28.00,   0.0
2051, 46589.000,  22.303103715, 114.177491211,    9.4224,  5, 16, 30.0000, 30.0000, 30.0000,  0.0000,  0.0000, -0.0000, 29.00,   0.0
2051, 46590.000,  22.303107299, 114.177489351,    5.4632,  5, 16, 30.0000, 30.0000, 30.0000,  0.0000,  0.0000, -0.0000,  0.00,   0.0
2051, 46591.000,  22.303101382, 114.177503373,    2.4365,  5, 16, 30.0000, 30.0000, 30.0000,  0.0000,  0.0000, -0.0000,  1.00,   0.0
2051, 46592.000,  22.303105482, 114.177509282,    7.6906,  5, 16, 30.0000, 30.0000, 30.0000,  0.0000,  0.0000, -0.0000,  2.00,   0.0
2051, 46593.000,  22.303102281, 114.177508687,   22.8340,  5, 16, 30.0000, 30.0000, 30.0000,  0.0000, -0.0000,  0.0000,  3.00,   0.0
2051, 46594.000,  22.303112196, 114.177517481,   14.4398,  5, 15, 30.0000, 30.0000, 30.0000, -0.0000,  0.0000,  0.0000,  4.00,   0.0
2051, 46595.000,  22.303110421, 114.177506819,   18.1498,  5, 14, 30.0000, 30.0000, 30.0000, -0.0000,  0.0000,  0.0000,  5.00,   0.0
2051, 46596.000,  22.303111770, 114.177510551,   12.9963,  5, 16, 30.0000, 30.0000, 30.0000,  0.0000,  0.0000,  0.0000,  6.00,   0.0
2051, 46597.000,  22.303106057, 114.177502097,    6.4212,  5, 16, 30.0000, 30.0000, 30.0000,  0.0000,  0.0000,  0.0000,  7.00,   0.0
2051, 46598.000,  22.303101691, 114.177506202,    8.0856,  5, 16, 30.0000, 30.0000, 30.0000, -0.0000,  0.0000, -0.0000,  8.00,   0.0
2051, 46599.000,  22.303111834, 114.177489248,    5.1443,  5, 16, 30.0000, 30.0000, 30.0000,  0.0000,  0.0000,  0.0000,  9.00,   0.0
2051, 46600.000,  22.303101934, 114.177494066,   -3.5414,  5, 16, 30.0000, 30.0000, 30.0000,  0.0000,  0.0000,  0.0000, 10.00,   0.0
2051, 46601.000,  22.303105563, 114.177482035,   -0.7179,  5, 16, 30.0000, 30.0000, 30.0000,  0.0000, -0.0000, -0.0000, 11.00,   0.0
2051, 46602.000,  22.303106925, 114.177487998,   -0.1817,  5, 16, 30.0000, 30.0000, 30.0000,  0.0000,  0.0000, -0.0000, 12.00,   0.0
2051, 46603.000,  22.303096843, 114.177472089,   -2.3512,  5, 16, 30.0000, 30.0000, 30.0000,  0.0000,  0.0000,  0.0000, 13.00,   0.0
2051, 46604.000,  22.303108734, 114.177482760,   -2.2330,  5, 16, 30.0000, 30.0000, 30.0000,  0.0000, -0.0000,  0.0000, 14.00,   0.0
2051, 46605.000,  22.303111501, 114.177492368,    0.3121,  5, 16, 30.0000, 30.0000, 30.0000, -0.0000,  0.0000,  0.0000, 15.00,   0.0
2051, 46606.000,  22.303105274, 114.177496793,    3.6586,  5, 18, 30.0000, 30.0000, 30.0000,  0.0000, -0.0000,  0.0000, 16.00,   0.0
2051, 46607.000,  22.303109825, 114.177520433,    2.6718,  5, 17, 30.0000, 30.0000, 30.0000, -0.0000,  0.0000,  0.0000, 17.00,   0.0
2051, 46608.000,  22.303108742, 114.177489369,    8.4046,  5, 16, 30.0000, 30.0000, 30.0000,  0.0000, -0.0000, -0.0000, 18.00,   0.0
2051, 46609.000,  22.303133523, 114.177494778,   13.1898,  5, 15, 30.0000, 30.0000, 30.0000,  0.0000,  0.0000,  0.0000, 19.00,   0.0
2051, 46610.000,  22.303115835, 114.177496006,    3.3357,  5, 14, 30.0000, 30.0000, 30.0000, -0.0000, -0.0000, -0.0000, 20.00,   0.0
2051, 46611.000,  22.303110048, 114.177497252,    8.6910,  5, 14, 30.0000, 30.0000, 30.0000,  0.0000,  0.0000,  0.0000, 21.00,   0.0
2051, 46612.000,  22.303107659, 114.177507733,    6.1625,  5, 14, 30.0000, 30.0000, 30.0000,  0.0000,  0.0000, -0.0000, 22.00,   0.0
2051, 46613.000,  22.303101516, 114.177504504,   13.5576,  5, 16, 30.0000, 30.0000, 30.0000, -0.0000,  0.0000,  0.0000, 23.00,   0.0
2051, 46614.000,  22.303099474, 114.177503752,    4.2278,  5, 16, 30.0000, 30.0000, 30.0000, -0.0000, -0.0000,  0.0000, 24.00,   0.0
2051, 46615.000,  22.303099902, 114.177501079,    6.8151,  5, 16, 30.0000, 30.0000, 30.0000,  0.0000,  0.0000,  0.0000, 25.00,   0.0
2051, 46616.000,  22.303096232, 114.177491972,    8.3611,  5, 16, 30.0000, 30.0000, 30.0000,  0.0000,  0.0000,  0.0000, 26.00,   0.0
2051, 46617.000,  22.303091975, 114.177470684,    4.3043,  5, 16, 30.0000, 30.0000, 30.0000,  0.0000,  0.0000,  0.0000, 27.00,   0.0
2051, 46618.000,  22.303079262, 114.177476642,    6.0617,  5, 16, 30.0000, 30.0000, 30.0000,  0.0000,  0.0000, -0.0000, 28.00,   0.0
2051, 46619.000,  22.303052756, 114.177469657,    2.7410,  5, 16, 30.0000, 30.0000, 30.0000, -0.0000,  0.0000,  0.0000, 29.00,   0.0
2051, 46620.000,  22.303027990, 114.177489836,   -5.7733,  5, 16, 30.0000, 30.0000, 30.0000,  0.0000,  0.0000, -0.0000,  0.00,   0.0
2051, 46621.000,  22.302991758, 114.177487592,    1.0410,  5, 16, 30.0000, 30.0000, 30.0000,  0.0000,  0.0000, -0.0000,  1.00,   0.0
2051, 46622.000,  22.302941375, 114.177508273,   -1.7838,  5, 16, 30.0000, 30.0000, 30.0000,  0.0000, -0.0000,  0.0000,  2.00,   0.0
2051, 46623.000,  22.302907072, 114.177530728,   -2.6292,  5, 16, 30.0000, 30.0000, 30.0000,  0.0000, -0.0000, -0.0000,  3.00,   0.0
2051, 46624.000,  22.302886526, 114.177574095,    0.3150,  5, 16, 30.0000, 30.0000, 30.0000,  0.0000,  0.0000,  0.0000,  4.00,   0.0
2051, 46625.000,  22.302847607, 114.177630477,    3.5488,  5, 16, 30.0000, 30.0000, 30.0000, -0.0000, -0.0000, -0.0000,  5.00,   0.0
2051, 46626.000,  22.302820942, 114.177682273,    7.1862,  5, 16, 30.0000, 30.0000, 30.0000, -0.0000,  0.0000, -0.0000,  6.00,   0.0
2051, 46627.000,  22.302792237, 114.177725405,    7.5163,  5, 16, 30.0000, 30.0000, 30.0000,  0.0000, -0.0000,  0.0000,  7.00,   0.0
2051, 46628.000,  22.302767432, 114.177783881,    7.7824,  5, 17, 30.0000, 30.0000, 30.0000, -0.0000, -0.0000, -0.0000,  8.00,   0.0
2051, 46629.000,  22.302723602, 114.177868131,   12.5311,  5, 15, 30.0000, 30.0000, 30.0000,  0.0000,  0.0000,  0.0000,  9.00,   0.0
2051, 46631.000,  22.302678331, 114.178011526,   15.0557,  5, 18, 30.0000, 30.0000, 30.0000,  0.0000,  0.0000,  0.0000, 11.00,   0.0
2051, 46632.000,  22.302659983, 114.178080033,    0.2696,  5, 19, 30.0000, 30.0000, 30.0000, -0.0000,  0.0000,  0.0000, 12.00,   0.0
2051, 46650.000,  22.302320299, 114.179515612,    6.1695,  5, 17, 30.0000, 30.0000, 30.0000,  0.0000,  0.0000,  0.0000,  0.00,   0.0
2051, 46651.000,  22.302270762, 114.179566716,   12.1926,  5, 18, 30.0000, 30.0000, 30.0000, -0.0000, -0.0000,  0.0000,  1.00,   0.0
2051, 46652.000,  22.302271814, 114.179588321,   12.8592,  5, 15, 30.0000, 30.0000, 30.0000,  0.0000,  0.0000, -0.0000,  2.00,   0.0
2051, 46654.000,  22.302048092, 114.179568530,   -1.2778,  5, 12, 30.0000, 30.0000, 30.0000,  0.0000,  0.0000, -0.0000,  4.00,   0.0
2051, 46658.000,  22.301898345, 114.179632613,    8.2204,  5, 13, 30.0000, 30.0000, 30.0000,  0.0000,  0.0000,  0.0000,  8.00,   0.0
2051, 46659.000,  22.301868409, 114.179609479,   11.0495,  5, 16, 30.0000, 30.0000, 30.0000,  0.0000,  0.0000,  0.0000,  9.00,   0.0
2051, 46660.000,  22.301837372, 114.179597077,   13.4713,  5, 16, 30.0000, 30.0000, 30.0000,  0.0000,  0.0000,  0.0000, 10.00,   0.0
2051, 46664.000,  22.301815575, 114.179619407,    8.7894,  5, 14, 30.0000, 30.0000, 30.0000, -0.0000,  0.0000,  0.0000, 14.00,   0.0
2051, 46665.000,  22.301801973, 114.179604440,   18.5240,  5, 14, 30.0000, 30.0000, 30.0000,  0.0000,  0.0000,  0.0000, 15.00,   0.0
2051, 46817.000,  22.298898510, 114.178533225,    7.1716,  5, 17, 30.0000, 30.0000, 30.0000, -0.0000,  0.0000,  0.0000, 17.00,   0.0
2051, 46818.000,  22.298853684, 114.178478278,   -0.2028,  5, 17, 30.0000, 30.0000, 30.0000, -0.0000,  0.0000,  0.0000, 18.00,   0.0
2051, 46819.000,  22.298815907, 114.178437742,    2.4987,  5, 17, 30.0000, 30.0000, 30.0000,  0.0000,  0.0000,  0.0000, 19.00,   0.0
2051, 46883.000,  22.297462573, 114.175458569,   -2.7156,  5, 13, 30.0000, 30.0000, 30.0000,  0.0000,  0.0000,  0.0000, 23.00,   0.0
2051, 46884.000,  22.297534296, 114.175486172,    6.9632,  5, 12, 30.0000, 30.0000, 30.0000,  0.0000,  0.0000,  0.0000, 24.00,   0.0
2051, 46885.000,  22.297583051, 114.175507623,    2.0384,  5, 12, 30.0000, 30.0000, 30.0000,  0.0000,  0.0000,  0.0000, 25.00,   0.0
2051, 46886.000,  22.297646120, 114.175538900,    7.0693,  5, 12, 30.0000, 30.0000, 30.0000,  0.0000,  0.0000,  0.0000, 26.00,   0.0
2051, 46887.000,  22.297777106, 114.175573238,   36.0374,  5, 12, 30.0000, 30.0000, 30.0000,  0.0000,  0.0000, -0.0000, 27.00,   0.0
2051, 46888.000,  22.297795673, 114.175579617,    3.5497,  5, 12, 30.0000, 30.0000, 30.0000,  0.0000,  0.0000,  0.0000, 28.00,   0.0
2051, 46889.000,  22.297887449, 114.175571295,    4.6666,  5, 11, 30.0000, 30.0000, 30.0000, -0.0000,  0.0000, -0.0000, 29.00,   0.0
2051, 46890.000,  22.297936451, 114.175571573,   -5.2260,  5, 13, 30.0000, 30.0000, 30.0000,  0.0000,  0.0000,  0.0000,  0.00,   0.0
2051, 46891.000,  22.298030607, 114.175558557,    8.2250,  5, 11, 30.0000, 30.0000, 30.0000, -0.0000,  0.0000, -0.0000,  1.00,   0.0
2051, 46892.000,  22.298092288, 114.175506725,  -11.3775,  5, 12, 30.0000, 30.0000, 30.0000,  0.0000, -0.0000,  0.0000,  2.00,   0.0
2051, 46893.000,  22.298206286, 114.175575984,    1.3918,  5, 12, 30.0000, 30.0000, 30.0000, -0.0000,  0.0000,  0.0000,  3.00,   0.0
2051, 46894.000,  22.298263091, 114.175632694,    6.9689,  5, 13, 30.0000, 30.0000, 30.0000,  0.0000,  0.0000,  0.0000,  4.00,   0.0
2051, 46895.000,  22.298347887, 114.175498941,  -11.5143,  5, 11, 30.0000, 30.0000, 30.0000,  0.0000,  0.0000,  0.0000,  5.00,   0.0
2051, 46896.000,  22.298461540, 114.175474893,  -14.5003,  5, 11, 30.0000, 30.0000, 30.0000,  0.0000,  0.0000,  0.0000,  6.00,   0.0
2051, 46900.000,  22.298840195, 114.175755863,   27.0599,  5, 13, 30.0000, 30.0000, 30.0000, -0.0000,  0.0000,  0.0000, 10.00,   0.0
2051, 46901.000,  22.298894670, 114.175688414,    5.9324,  5, 12, 30.0000, 30.0000, 30.0000,  0.0000,  0.0000, -0.0000, 11.00,   0.0
2051, 46902.000,  22.298980737, 114.175820082,   37.1268,  5, 13, 30.0000, 30.0000, 30.0000,  0.0000,  0.0000, -0.0000, 12.00,   0.0
2051, 46903.000,  22.299048342, 114.175715099,   11.6427,  5, 11, 30.0000, 30.0000, 30.0000,  0.0000, -0.0000,  0.0000, 13.00,   0.0
2051, 46904.000,  22.299091999, 114.175739842,   11.5646,  5, 11, 30.0000, 30.0000, 30.0000,  0.0000,  0.0000,  0.0000, 14.00,   0.0
2051, 46906.000,  22.299221778, 114.175815755,   27.7083,  5, 10, 30.0000, 30.0000, 30.0000,  0.0000, -0.0000,  0.0000, 16.00,   0.0
2051, 46907.000,  22.299262880, 114.175814890,   37.8798,  5, 10, 30.0000, 30.0000, 30.0000, -0.0000,  0.0000,  0.0000, 17.00,   0.0
2051, 46908.000,  22.299271135, 114.175698994,   -2.4290,  5, 12, 30.0000, 30.0000, 30.0000,  0.0000, -0.0000,  0.0000, 18.00,   0.0
2051, 46909.000,  22.299283870, 114.175607708,  -19.7655,  5, 12, 30.0000, 30.0000, 30.0000, -0.0000,  0.0000,  0.0000, 19.00,   0.0
2051, 46910.000,  22.299306697, 114.175622196,   -5.4657,  5,  8, 30.0000, 30.0000, 30.0000, -0.0000, -0.0000, -0.0000, 20.00,   0.0
2051, 46915.000,  22.299507107, 114.176178607,   78.7175,  5,  8, 30.0000, 30.0000, 30.0000,  0.0000,  0.0000,  0.0000, 25.00,   0.0
2051, 46920.000,  22.299523105, 114.176240389,   84.0046,  5,  9, 30.0000, 30.0000, 30.0000,  0.0000,  0.0000,  0.0000,  0.00,   0.0
2051, 46930.000,  22.299458591, 114.176022081,   34.2844,  5,  9, 30.0000, 30.0000, 30.0000,  0.0000, -0.0000,  0.0000, 10.00,   0.0
2051, 46934.000,  22.299542123, 114.175934730,    8.8877,  5, 13, 30.0000, 30.0000, 30.0000,  0.0000, -0.0000,  0.0000, 14.00,   0.0
2051, 46936.000,  22.299629624, 114.175891730,   -1.0069,  5, 12, 30.0000, 30.0000, 30.0000, -0.0000,  0.0000,  0.0000, 16.00,   0.0
2051, 46937.000,  22.299712552, 114.175882976,   -5.3558,  5, 11, 30.0000, 30.0000, 30.0000, -0.0000,  0.0000,  0.0000, 17.00,   0.0
2051, 46939.000,  22.299858591, 114.175893896,  -16.5883,  5, 10, 30.0000, 30.0000, 30.0000,  0.0000,  0.0000,  0.0000, 19.00,   0.0
2051, 46940.000,  22.299927324, 114.175939592,   -8.4917,  5, 10, 30.0000, 30.0000, 30.0000,  0.0000, -0.0000,  0.0000, 20.00,   0.0
2051, 46941.000,  22.300020652, 114.175975706,   -3.7409,  5, 11, 30.0000, 30.0000, 30.0000,  0.0000,  0.0000,  0.0000, 21.00,   0.0
2051, 46942.000,  22.300123716, 114.176070329,   10.0166,  5, 10, 30.0000, 30.0000, 30.0000,  0.0000,  0.0000,  0.0000, 22.00,   0.0
2051, 46943.000,  22.300192093, 114.176034001,   -6.3258,  5, 10, 30.0000, 30.0000, 30.0000,  0.0000,  0.0000, -0.0000, 23.00,   0.0
2051, 46944.000,  22.300284572, 114.176057036,   -3.2227,  5, 10, 30.0000, 30.0000, 30.0000,  0.0000,  0.0000,  0.0000, 24.00,   0.0
2051, 46945.000,  22.300366626, 114.176115014,    2.4152,  5, 11, 30.0000, 30.0000, 30.0000,  0.0000,  0.0000, -0.0000, 25.00,   0.0
2051, 46946.000,  22.300463924, 114.176071345,  -13.5726,  5,  8, 30.0000, 30.0000, 30.0000,  0.0000, -0.0000,  0.0000, 26.00,   0.0
2051, 46947.000,  22.300544370, 114.176036144,  -21.9895,  5, 11, 30.0000, 30.0000, 30.0000,  0.0000,  0.0000, -0.0000, 27.00,   0.0
2051, 46949.000,  22.300699429, 114.176017153,  -25.6865,  5,  8, 30.0000, 30.0000, 30.0000,  0.0000,  0.0000,  0.0000, 29.00,   0.0
2051, 46951.000,  22.300855102, 114.176079305,  -42.3518,  5,  6, 30.0000, 30.0000, 30.0000,  0.0000, -0.0000,  0.0000,  1.00,   0.0
2051, 46952.000,  22.300983761, 114.176111532,  -31.3478,  5,  7, 30.0000, 30.0000, 30.0000,  0.0000,  0.0000,  0.0000,  2.00,   0.0
2051, 46953.000,  22.301129966, 114.176308791,   -2.7531,  5,  8, 30.0000, 30.0000, 30.0000, -0.0000,  0.0000, -0.0000,  3.00,   0.0
2051, 46954.000,  22.301231969, 114.176398290,    7.6100,  5,  9, 30.0000, 30.0000, 30.0000,  0.0000,  0.0000, -0.0000,  4.00,   0.0
2051, 46955.000,  22.301335943, 114.176535521,   22.1798,  5, 12, 30.0000, 30.0000, 30.0000, -0.0000,  0.0000,  0.0000,  5.00,   0.0
2051, 46958.000,  22.301647277, 114.176469316,   -5.1171,  5, 12, 30.0000, 30.0000, 30.0000,  0.0000,  0.0000,  0.0000,  8.00,   0.0
2051, 46960.000,  22.301861328, 114.176548099,   -6.7859,  5, 12, 30.0000, 30.0000, 30.0000, -0.0000,  0.0000,  0.0000, 10.00,   0.0
2051, 46961.000,  22.301939950, 114.176684235,    5.7475,  5, 14, 30.0000, 30.0000, 30.0000, -0.0000,  0.0000,  0.0000, 11.00,   0.0
2051, 46962.000,  22.302055333, 114.176681501,    8.5233,  5, 13, 30.0000, 30.0000, 30.0000, -0.0000,  0.0000,  0.0000, 12.00,   0.0
2051, 46963.000,  22.302171726, 114.176703234,    4.4512,  5, 15, 30.0000, 30.0000, 30.0000,  0.0000,  0.0000,  0.0000, 13.00,   0.0
2051, 46964.000,  22.302267018, 114.176768945,    6.9161,  5, 17, 30.0000, 30.0000, 30.0000, -0.0000,  0.0000,  0.0000, 14.00,   0.0
2051, 46965.000,  22.302346227, 114.176777137,    1.5262,  5, 16, 30.0000, 30.0000, 30.0000, -0.0000,  0.0000,  0.0000, 15.00,   0.0
2051, 46966.000,  22.302439501, 114.176834926,    4.1260,  5, 16, 30.0000, 30.0000, 30.0000,  0.0000,  0.0000,  0.0000, 16.00,   0.0
2051, 46967.000,  22.302532716, 114.176883302,    8.3059,  5, 18, 30.0000, 30.0000, 30.0000,  0.0000,  0.0000,  0.0000, 17.00,   0.0
2051, 46968.000,  22.302580308, 114.176901074,    3.2258,  5, 18, 30.0000, 30.0000, 30.0000,  0.0000,  0.0000,  0.0000, 18.00,   0.0
2051, 46969.000,  22.302636618, 114.176937166,    4.9619,  5, 18, 30.0000, 30.0000, 30.0000,  0.0000,  0.0000,  0.0000, 19.00,   0.0
2051, 46970.000,  22.302669939, 114.176961555,    0.4841,  5, 18, 30.0000, 30.0000, 30.0000,  0.0000,  0.0000,  0.0000, 20.00,   0.0
2051, 46971.000,  22.302697792, 114.176978675,    4.0125,  5, 18, 30.0000, 30.0000, 30.0000, -0.0000, -0.0000,  0.0000, 21.00,   0.0
2051, 46972.000,  22.302707361, 114.176981157,    1.0977,  5, 18, 30.0000, 30.0000, 30.0000,  0.0000,  0.0000,  0.0000, 22.00,   0.0
2051, 46973.000,  22.302710530, 114.176983713,    0.1622,  5, 18, 30.0000, 30.0000, 30.0000, -0.0000,  0.0000,  0.0000, 23.00,   0.0
2051, 46974.000,  22.302724544, 114.176988060,    9.9871,  5, 19, 30.0000, 30.0000, 30.0000, -0.0000,  0.0000, -0.0000, 24.00,   0.0
2051, 46975.000,  22.302723213, 114.176995754,    7.8472,  5, 18, 30.0000, 30.0000, 30.0000,  0.0000,  0.0000,  0.0000, 25.00,   0.0
2051, 46976.000,  22.302720330, 114.176995486,    6.1388,  5, 18, 30.0000, 30.0000, 30.0000, -0.0000,  0.0000,  0.0000, 26.00,   0.0
2051, 46977.000,  22.302706261, 114.176978878,   -1.8603,  5, 19, 30.0000, 30.0000, 30.0000,  0.0000, -0.0000,  0.0000, 27.00,   0.0
2051, 46978.000,  22.302718130, 114.176994772,    4.0828,  5, 18, 30.0000, 30.0000, 30.0000,  0.0000, -0.0000, -0.0000, 28.00,   0.0
2051, 46979.000,  22.302717849, 114.176994983,    4.0236,  5, 18, 30.0000, 30.0000, 30.0000,  0.0000,  0.0000,  0.0000, 29.00,   0.0
2051, 46980.000,  22.302714284, 114.176993309,    1.4426,  5, 18, 30.0000, 30.0000, 30.0000,  0.0000, -0.0000, -0.0000,  0.00,   0.0
2051, 46981.000,  22.302713564, 114.176992897,    1.8451,  5, 18, 30.0000, 30.0000, 30.0000,  0.0000, -0.0000,  0.0000,  1.00,   0.0
2051, 46982.000,  22.302716330, 114.176995339,    3.4187,  5, 18, 30.0000, 30.0000, 30.0000,  0.0000, -0.0000, -0.0000,  2.00,   0.0
2051, 46983.000,  22.302713451, 114.176996579,    2.5403,  5, 18, 30.0000, 30.0000, 30.0000, -0.0000, -0.0000,  0.0000,  3.00,   0.0
2051, 46984.000,  22.302711631, 114.176997046,    1.0357,  5, 18, 30.0000, 30.0000, 30.0000,  0.0000,  0.0000, -0.0000,  4.00,   0.0
2051, 46985.000,  22.302715596, 114.176999653,    3.2886,  5, 18, 30.0000, 30.0000, 30.0000,  0.0000,  0.0000,  0.0000,  5.00,   0.0
2051, 46986.000,  22.302716918, 114.177000747,    3.8611,  5, 18, 30.0000, 30.0000, 30.0000, -0.0000,  0.0000,  0.0000,  6.00,   0.0
2051, 46987.000,  22.302713378, 114.177000505,    1.7817,  5, 18, 30.0000, 30.0000, 30.0000, -0.0000,  0.0000, -0.0000,  7.00,   0.0
2051, 46988.000,  22.302713443, 114.177001268,    1.7988,  5, 18, 30.0000, 30.0000, 30.0000, -0.0000,  0.0000, -0.0000,  8.00,   0.0
2051, 46989.000,  22.302711967, 114.177001590,    0.4523,  5, 18, 30.0000, 30.0000, 30.0000,  0.0000, -0.0000, -0.0000,  9.00,   0.0
2051, 46990.000,  22.302709455, 114.176998961,   -0.7082,  5, 18, 30.0000, 30.0000, 30.0000,  0.0000, -0.0000,  0.0000, 10.00,   0.0
2051, 46991.000,  22.302713005, 114.176998709,    1.1529,  5, 18, 30.0000, 30.0000, 30.0000,  0.0000,  0.0000,  0.0000, 11.00,   0.0
2051, 46992.000,  22.302708055, 114.176996535,   -0.9678,  5, 18, 30.0000, 30.0000, 30.0000,  0.0000, -0.0000,  0.0000, 12.00,   0.0
2051, 46993.000,  22.302704961, 114.176994278,   -2.8325,  5, 18, 30.0000, 30.0000, 30.0000,  0.0000,  0.0000,  0.0000, 13.00,   0.0
2051, 46994.000,  22.302704258, 114.176994014,   -3.0080,  5, 18, 30.0000, 30.0000, 30.0000,  0.0000,  0.0000, -0.0000, 14.00,   0.0
2051, 46995.000,  22.302705661, 114.176994837,   -1.6733,  5, 18, 30.0000, 30.0000, 30.0000,  0.0000,  0.0000, -0.0000, 15.00,   0.0
2051, 46996.000,  22.302705979, 114.176995943,   -1.2810,  5, 18, 30.0000, 30.0000, 30.0000, -0.0000,  0.0000, -0.0000, 16.00,   0.0
2051, 46997.000,  22.302708430, 114.176996734,    0.5760,  5, 18, 30.0000, 30.0000, 30.0000, -0.0000,  0.0000,  0.0000, 17.00,   0.0
2051, 46998.000,  22.302709840, 114.176996303,    0.8606,  5, 18, 30.0000, 30.0000, 30.0000,  0.0000,  0.0000,  0.0000, 18.00,   0.0
2051, 46999.000,  22.302709240, 114.176995259,    0.4376,  5, 18, 30.0000, 30.0000, 30.0000,  0.0000,  0.0000,  0.0000, 19.00,   0.0
2051, 47000.000,  22.302708831, 114.176994951,    0.3498,  5, 18, 30.0000, 30.0000, 30.0000,  0.0000,  0.0000,  0.0000, 20.00,   0.0
2051, 47001.000,  22.302706885, 114.176995419,   -1.2425,  5, 18, 30.0000, 30.0000, 30.0000,  0.0000,  0.0000,  0.0000, 21.00,   0.0
2051, 47002.000,  22.302708777, 114.176998118,   -0.2381,  5, 18, 30.0000, 30.0000, 30.0000,  0.0000,  0.0000,  0.0000, 22.00,   0.0
2051, 47003.000,  22.302711853, 114.176998955,    1.5024,  5, 18, 30.0000, 30.0000, 30.0000, -0.0000, -0.0000, -0.0000, 23.00,   0.0
2051, 47004.000,  22.302711823, 114.176998565,    1.8950,  5, 18, 30.0000, 30.0000, 30.0000, -0.0000, -0.0000,  0.0000, 24.00,   0.0
2051, 47005.000,  22.302717913, 114.177002426,    4.7355,  5, 18, 30.0000, 30.0000, 30.0000, -0.0000,  0.0000, -0.0000, 25.00,   0.0
2051, 47006.000,  22.302722109, 114.177004539,    6.6936,  5, 18, 30.0000, 30.0000, 30.0000, -0.0000,  0.0000,  0.0000, 26.00,   0.0
2051, 47007.000,  22.302718253, 114.177002846,    3.7468,  5, 18, 30.0000, 30.0000, 30.0000,  0.0000,  0.0000,  0.0000, 27.00,   0.0
2051, 47008.000,  22.302720008, 114.177003457,    4.8243,  5, 18, 30.0000, 30.0000, 30.0000,  0.0000,  0.0000, -0.0000, 28.00,   0.0
2051, 47009.000,  22.302722251, 114.177005175,    5.8226,  5, 18, 30.0000, 30.0000, 30.0000,  0.0000,  0.0000, -0.0000, 29.00,   0.0
2051, 47010.000,  22.302718783, 114.177002292,    3.1252,  5, 18, 30.0000, 30.0000, 30.0000,  0.0000, -0.0000,  0.0000,  0.00,   0.0
2051, 47011.000,  22.302714171, 114.176998896,    0.0888,  5, 18, 30.0000, 30.0000, 30.0000,  0.0000,  0.0000,  0.0000,  1.00,   0.0
2051, 47012.000,  22.302726688, 114.177004729,    8.2658,  5, 18, 30.0000, 30.0000, 30.0000, -0.0000,  0.0000,  0.0000,  2.00,   0.0
2051, 47013.000,  22.302725601, 114.177003982,    7.0189,  5, 18, 30.0000, 30.0000, 30.0000,  0.0000,  0.0000,  0.0000,  3.00,   0.0
2051, 47014.000,  22.302727763, 114.177004930,    8.0793,  5, 18, 30.0000, 30.0000, 30.0000, -0.0000,  0.0000,  0.0000,  4.00,   0.0
2051, 47015.000,  22.302721108, 114.177002015,    4.2221,  5, 18, 30.0000, 30.0000, 30.0000, -0.0000, -0.0000, -0.0000,  5.00,   0.0
2051, 47016.000,  22.302723629, 114.177002944,    5.7499,  5, 18, 30.0000, 30.0000, 30.0000,  0.0000,  0.0000,  0.0000,  6.00,   0.0
2051, 47017.000,  22.302725497, 114.177004446,    6.9008,  5, 18, 30.0000, 30.0000, 30.0000, -0.0000,  0.0000,  0.0000,  7.00,   0.0
