% program   : RTKLIB ver.2.4.2
% inp file  : /home/gao_yixin/GraphGNSSLib/src/GraphGNSSLib/global_fusion/dataset/2021_0521_0607/UrbanNav_HK_Deep_Urban_ubloxf9p.obs
% inp file  : /home/gao_yixin/GraphGNSSLib/src/GraphGNSSLib/global_fusion/dataset/2021_0521_0607/hkqt141g.21o
% inp file  : /home/gao_yixin/GraphGNSSLib/src/GraphGNSSLib/global_fusion/dataset/2021_0521_0607/hkqt141g.21c
% inp file  : /home/gao_yixin/GraphGNSSLib/src/GraphGNSSLib/global_fusion/dataset/2021_0521_0607/hkqt141g.21n
% obs start : 2021/05/21 06:29:06.0 GPST (week2158 455346.0s)
% obs end   : 2021/05/21 06:54:40.0 GPST (week2158 456880.0s)
% pos mode  : kinematic
% freqs     : L1+L2
% solution  : forward
% elev mask : 15.0 deg
% dynamics  : off
% tidecorr  : off
% ionos opt : broadcast
% tropo opt : saastamoinen
% ephemeris : broadcast
% navi sys  : gps glonass galileo qzss sbas
% amb res   : fix and hold
% amb glo   : on
% val thres : 3.0
% antenna1  :                       ( 0.0000  0.0000  0.0000)
% antenna2  :                       ( 0.0000  0.0000  0.0000)
% ref pos   : 22.291035082, 114.213215939,    5.1761
%
% (lat/lon/height=WGS84/ellipsoidal,Q=1:fix,2:float,3:sbas,4:dgps,5:single,6:ppp,ns=# of satellites)
%  GPST        , latitude(deg),longitude(deg), height(m),  Q, ns,  sdn(m),  sde(m),  sdu(m), sdne(m), sdeu(m), sdun(m),age(s), ratio
2158,455346.000,  22.301551777, 114.190307276,    3.0011,  2, 14,  0.4985,  0.4190,  1.0367, -0.0489,  0.1826,  0.3514, -0.00,   1.1
2158,455347.000,  22.301551970, 114.190307576,    3.0188,  2, 14,  0.3540,  0.2974,  0.7360, -0.0347,  0.1292,  0.2502, -0.00,   1.0
2158,455348.000,  22.301553413, 114.190305363,    2.9035,  2, 15,  0.2772,  0.2429,  0.5809, -0.0431,  0.0957,  0.1700, -0.00,   1.1
2158,455349.000,  22.301556198, 114.190299559,    2.9983,  2, 15,  0.2360,  0.2103,  0.4962, -0.0413,  0.0793,  0.1339, -0.00,   1.0
2158,455350.000,  22.301558233, 114.190289672,    2.9487,  2, 14,  0.2135,  0.1883,  0.4479, -0.0348,  0.0730,  0.1274, -0.00,   1.0
2158,455351.000,  22.301560951, 114.190276913,    2.9423,  2, 15,  0.1928,  0.1719,  0.4054, -0.0336,  0.0649,  0.1096, -0.00,   1.1
2158,455352.000,  22.301565950, 114.190264783,    2.8544,  2, 14,  0.1799,  0.1592,  0.3778, -0.0298,  0.0613,  0.1060, -0.00,   1.1
2158,455353.000,  22.301574871, 114.190254723,    2.8563,  2, 15,  0.1670,  0.1489,  0.3512, -0.0290,  0.0563,  0.0949, -0.00,   1.1
2158,455354.000,  22.301586730, 114.190245934,    2.9483,  2, 15,  0.1565,  0.1404,  0.3295, -0.0280,  0.0523,  0.0864, -0.00,   1.1
2158,455355.000,  22.301600292, 114.190237673,    2.9836,  2, 15,  0.1481,  0.1336,  0.3115, -0.0248,  0.0496,  0.0800, -0.00,   1.0
2158,455356.000,  22.301615817, 114.190228823,    3.0018,  2, 14,  0.1423,  0.1278,  0.2984, -0.0207,  0.0485,  0.0793, -0.00,   1.0
2158,455357.000,  22.301637446, 114.190217241,    3.0644,  2, 13,  0.1369,  0.1231,  0.2875, -0.0185,  0.0440,  0.0776, -0.00,   1.0
2158,455358.000,  22.301665880, 114.190203215,    3.1106,  2, 14,  0.1309,  0.1189,  0.2756, -0.0173,  0.0395,  0.0722, -0.00,   1.1
2158,455359.000,  22.301700238, 114.190187246,    3.1369,  2, 15,  0.1255,  0.1150,  0.2639, -0.0175,  0.0334,  0.0665, -0.00,   1.0
2158,455360.000,  22.301738885, 114.190169222,    3.1509,  2, 15,  0.1207,  0.1115,  0.2537, -0.0172,  0.0280,  0.0617, -0.00,   1.0
2158,455361.000,  22.301781764, 114.190149215,    3.1553,  2, 14,  0.1165,  0.1084,  0.2455, -0.0162,  0.0251,  0.0584, -0.00,   1.1
2158,455362.000,  22.301829156, 114.190126683,    3.1567,  2, 14,  0.1129,  0.1057,  0.2381, -0.0138,  0.0226,  0.0556, -0.00,   1.0
2158,455363.000,  22.301879999, 114.190101885,    3.1617,  2, 14,  0.1095,  0.1031,  0.2313, -0.0130,  0.0202,  0.0531, -0.00,   1.1
2158,455364.000,  22.301933062, 114.190075586,    3.1847,  2, 13,  0.1070,  0.1009,  0.2268, -0.0101,  0.0139,  0.0521, -0.00,   1.0
2158,455365.000,  22.301985739, 114.190049357,    3.2007,  2, 14,  0.1046,  0.0984,  0.2221, -0.0081,  0.0122,  0.0513, -0.00,   1.1
2158,455366.000,  22.302037171, 114.190024047,    3.1706,  2, 13,  0.1024,  0.0965,  0.2180, -0.0038, -0.0019,  0.0503, -0.00,   1.1
2158,455367.000,  22.302087085, 114.189999634,    3.1609,  2, 14,  0.0999,  0.0947,  0.2132,  0.0051, -0.0121,  0.0474, -0.00,   1.0
2158,455368.000,  22.302135597, 114.189975346,    3.1788,  2, 12,  0.0981,  0.0931,  0.2097,  0.0091, -0.0167,  0.0462, -0.00,   1.1
2158,455369.000,  22.302181830, 114.189949305,    3.1207,  2, 11,  0.0967,  0.0916,  0.2068,  0.0108, -0.0190,  0.0441, -0.00,   1.1
2158,455370.000,  22.302223118, 114.189918362,    3.0912,  2, 10,  0.0960,  0.0902,  0.2050,  0.0113, -0.0202,  0.0394, -0.00,   2.2
2158,455371.000,  22.302256881, 114.189881328,    3.0440,  2, 11,  0.0948,  0.0889,  0.2018,  0.0112, -0.0212,  0.0340, -0.00,   2.1
2158,455372.000,  22.302280404, 114.189839274,    3.0391,  2, 11,  0.0936,  0.0876,  0.1989,  0.0115, -0.0221,  0.0330, -0.00,   1.0
2158,455373.000,  22.302292551, 114.189795224,    3.0546,  2, 12,  0.0921,  0.0863,  0.1958,  0.0129, -0.0236,  0.0328, -0.00,   1.3
2158,455374.000,  22.302294626, 114.189751062,    3.0506,  2, 13,  0.0904,  0.0851,  0.1923,  0.0142, -0.0251,  0.0302, -0.00,   1.2
2158,455375.000,  22.302286966, 114.189708225,    3.0581,  2, 12,  0.0891,  0.0839,  0.1898,  0.0151, -0.0262,  0.0299, -0.00,   1.4
2158,455376.000,  22.302270787, 114.189668616,    3.0709,  2, 12,  0.0878,  0.0828,  0.1873,  0.0160, -0.0271,  0.0293, -0.00,   1.4
2158,455377.000,  22.302249832, 114.189631537,    3.0898,  2, 12,  0.0865,  0.0817,  0.1848,  0.0168, -0.0279,  0.0287, -0.00,   1.5
2158,455378.000,  22.302227315, 114.189594763,    3.1225,  2, 13,  0.0851,  0.0807,  0.1824,  0.0171, -0.0284,  0.0285, -0.00,   1.6
2158,455379.000,  22.302206261, 114.189560182,    3.0081,  2, 13,  0.0838,  0.0796,  0.1801,  0.0173, -0.0288,  0.0283, -0.00,   1.6
2158,455380.000,  22.302184423, 114.189526992,    3.1686,  2, 13,  0.0826,  0.0787,  0.1779,  0.0175, -0.0291,  0.0280, -0.00,   1.6
2158,455381.000,  22.302164362, 114.189496234,    3.2145,  2, 13,  0.0814,  0.0777,  0.1757,  0.0177, -0.0294,  0.0278, -0.00,   1.7
2158,455382.000,  22.302146221, 114.189468463,    3.1902,  2, 13,  0.0802,  0.0768,  0.1736,  0.0178, -0.0296,  0.0275, -0.00,   1.7
2158,455383.000,  22.302125815, 114.189440465,    3.3992,  2, 13,  0.0792,  0.0758,  0.1714,  0.0182, -0.0284,  0.0279, -0.00,   1.7
2158,455384.000,  22.302108154, 114.189418025,    2.9380,  1, 12,  0.0071,  0.0053,  0.0146,  0.0028, -0.0005,  0.0072, -0.00,   5.8
2158,455385.000,  22.302086998, 114.189387322,    2.9610,  1, 12,  0.0071,  0.0049,  0.0145,  0.0025,  0.0019,  0.0072, -0.00,   5.8
2158,455386.000,  22.302064940, 114.189351578,    3.0320,  1, 12,  0.0072,  0.0051,  0.0145,  0.0025,  0.0025,  0.0070, -0.00,   5.7
2158,455387.000,  22.302039702, 114.189303289,    3.0724,  2, 12,  0.0770,  0.0727,  0.1657,  0.0200, -0.0228,  0.0353, -0.00,   1.2
2158,455388.000,  22.302023807, 114.189254318,    3.0633,  2, 10,  0.0765,  0.0724,  0.1638,  0.0214, -0.0211,  0.0354, -0.00,   1.2
2158,455389.000,  22.302016324, 114.189202408,    3.0874,  2, 10,  0.0757,  0.0719,  0.1620,  0.0219, -0.0201,  0.0352, -0.00,   1.2
2158,455390.000,  22.302019510, 114.189149491,    3.2407,  2,  9,  0.0822,  0.0754,  0.1644,  0.0361,  0.0209,  0.0491, -0.00,   1.1
2158,455391.000,  22.302033083, 114.189095085,    3.2060,  2,  9,  0.0795,  0.0733,  0.1621,  0.0320,  0.0139,  0.0458, -0.00,   1.1
2158,455392.000,  22.302056697, 114.189041570,    3.2511,  2, 10,  0.0782,  0.0723,  0.1606,  0.0308,  0.0122,  0.0452, -0.00,   1.3
2158,455393.000,  22.302085874, 114.188989373,    3.3464,  2, 10,  0.0770,  0.0715,  0.1590,  0.0297,  0.0106,  0.0445, -0.00,   1.5
2158,455394.000,  22.302115511, 114.188939913,    3.3869,  2, 12,  0.0760,  0.0705,  0.1576,  0.0288,  0.0093,  0.0443, -0.00,   1.6
2158,455395.000,  22.302143936, 114.188893917,    3.4756,  2, 12,  0.0746,  0.0693,  0.1557,  0.0270, -0.0043,  0.0427, -0.00,   1.8
2158,455396.000,  22.302168780, 114.188853319,    3.5339,  2, 12,  0.0738,  0.0685,  0.1544,  0.0262, -0.0055,  0.0427, -0.00,   1.4
2158,455397.000,  22.302186874, 114.188820050,    3.6050,  2, 12,  0.0732,  0.0678,  0.1533,  0.0259, -0.0045,  0.0429, -0.00,   1.8
2158,455398.000,  22.302197960, 114.188795671,    3.6270,  2, 12,  0.0724,  0.0671,  0.1524,  0.0252, -0.0090,  0.0429, -0.00,   2.3
2158,455399.000,  22.302204681, 114.188778033,    3.6087,  2, 12,  0.0718,  0.0664,  0.1510,  0.0249, -0.0079,  0.0427, -0.00,   2.7
2158,455400.000,  22.302209740, 114.188762289,    3.6060,  2, 11,  0.0712,  0.0659,  0.1504,  0.0244, -0.0107,  0.0432, -0.00,   2.8
2158,455401.000,  22.302217914, 114.188751607,    3.6038,  1, 11,  0.0076,  0.0058,  0.0180, -0.0021, -0.0054,  0.0093, -0.00,   3.0
2158,455402.000,  22.302216245, 114.188735856,    3.5484,  1, 12,  0.0076,  0.0055,  0.0173, -0.0019, -0.0044,  0.0093, -0.00,   3.2
2158,455403.000,  22.302204991, 114.188717212,    3.4722,  2, 12,  0.0696,  0.0639,  0.1469,  0.0231, -0.0053,  0.0444, -0.00,   1.3
2158,455404.000,  22.302196574, 114.188709050,    3.4724,  2, 13,  0.0691,  0.0632,  0.1457,  0.0227, -0.0028,  0.0445, -0.00,   1.3
2158,455405.000,  22.302192739, 114.188706825,    3.4795,  2, 13,  0.0685,  0.0624,  0.1444,  0.0222,  0.0036,  0.0446, -0.00,   1.4
2158,455406.000,  22.302192771, 114.188706939,    3.4976,  2, 13,  0.0680,  0.0617,  0.1433,  0.0217,  0.0055,  0.0447, -0.00,   1.5
2158,455407.000,  22.302192789, 114.188707190,    3.5089,  2, 13,  0.0675,  0.0610,  0.1421,  0.0213,  0.0067,  0.0449, -0.00,   1.6
2158,455408.000,  22.302192835, 114.188707311,    3.5344,  2, 13,  0.0670,  0.0603,  0.1411,  0.0209,  0.0076,  0.0451, -0.00,   1.7
2158,455409.000,  22.302192878, 114.188707451,    3.5365,  2, 13,  0.0665,  0.0597,  0.1401,  0.0206,  0.0084,  0.0452, -0.00,   1.8
2158,455410.000,  22.302192927, 114.188707506,    3.5617,  2, 13,  0.0661,  0.0591,  0.1392,  0.0203,  0.0097,  0.0455, -0.00,   1.3
2158,455411.000,  22.302192920, 114.188707600,    3.5673,  2, 13,  0.0657,  0.0585,  0.1381,  0.0199,  0.0101,  0.0455, -0.00,   1.6
2158,455412.000,  22.302192936, 114.188707630,    3.5982,  2, 13,  0.0652,  0.0580,  0.1372,  0.0195,  0.0105,  0.0456, -0.00,   1.9
2158,455413.000,  22.302192967, 114.188707799,    3.6203,  2, 13,  0.0648,  0.0574,  0.1362,  0.0192,  0.0109,  0.0457, -0.00,   2.1
2158,455414.000,  22.302192911, 114.188707816,    3.6319,  2, 13,  0.0643,  0.0569,  0.1353,  0.0189,  0.0112,  0.0458, -0.00,   2.2
2158,455415.000,  22.302192915, 114.188707853,    3.6430,  2, 13,  0.0640,  0.0564,  0.1344,  0.0186,  0.0117,  0.0458, -0.00,   2.2
2158,455416.000,  22.302192901, 114.188707942,    3.6575,  2, 13,  0.0636,  0.0559,  0.1336,  0.0184,  0.0119,  0.0459, -0.00,   2.3
2158,455417.000,  22.302192925, 114.188708001,    3.6713,  2, 13,  0.0632,  0.0554,  0.1327,  0.0180,  0.0124,  0.0459, -0.00,   2.3
2158,455418.000,  22.302192851, 114.188708033,    3.6695,  2, 13,  0.0628,  0.0549,  0.1319,  0.0179,  0.0125,  0.0460, -0.00,   2.4
2158,455419.000,  22.302192870, 114.188708074,    3.6867,  2, 13,  0.0624,  0.0544,  0.1310,  0.0176,  0.0127,  0.0460, -0.00,   2.4
2158,455420.000,  22.302192820, 114.188708113,    3.6861,  2, 13,  0.0620,  0.0540,  0.1302,  0.0173,  0.0130,  0.0460, -0.00,   2.5
2158,455421.000,  22.302192788, 114.188708152,    3.6904,  2, 13,  0.0616,  0.0535,  0.1294,  0.0171,  0.0132,  0.0460, -0.00,   2.5
2158,455422.000,  22.302192689, 114.188708147,    3.6829,  2, 13,  0.0613,  0.0531,  0.1287,  0.0169,  0.0133,  0.0460, -0.00,   2.5
2158,455423.000,  22.302192664, 114.188708120,    3.6822,  2, 13,  0.0609,  0.0527,  0.1279,  0.0167,  0.0135,  0.0460, -0.00,   2.5
2158,455424.000,  22.302192583, 114.188708137,    3.6704,  2, 13,  0.0605,  0.0523,  0.1271,  0.0165,  0.0137,  0.0460, -0.00,   2.5
2158,455425.000,  22.302192504, 114.188708145,    3.6743,  2, 13,  0.0602,  0.0519,  0.1264,  0.0163,  0.0139,  0.0460, -0.00,   2.4
2158,455426.000,  22.302192457, 114.188708091,    3.6595,  2, 13,  0.0598,  0.0515,  0.1257,  0.0161,  0.0139,  0.0459, -0.00,   2.4
2158,455427.000,  22.302192409, 114.188708135,    3.6504,  2, 13,  0.0595,  0.0511,  0.1250,  0.0160,  0.0141,  0.0458, -0.00,   2.4
2158,455428.000,  22.302192370, 114.188708094,    3.6541,  2, 13,  0.0591,  0.0507,  0.1242,  0.0158,  0.0142,  0.0458, -0.00,   2.4
2158,455429.000,  22.302192275, 114.188708064,    3.6425,  2, 13,  0.0588,  0.0503,  0.1235,  0.0155,  0.0143,  0.0458, -0.00,   2.3
2158,455430.000,  22.302192189, 114.188707995,    3.6283,  2, 13,  0.0584,  0.0500,  0.1229,  0.0155,  0.0144,  0.0457, -0.00,   2.3
2158,455431.000,  22.302192099, 114.188707964,    3.6186,  2, 13,  0.0581,  0.0496,  0.1222,  0.0153,  0.0145,  0.0456, -0.00,   2.3
2158,455432.000,  22.302192042, 114.188707935,    3.6149,  2, 13,  0.0578,  0.0493,  0.1215,  0.0150,  0.0147,  0.0456, -0.00,   2.3
2158,455433.000,  22.302191955, 114.188707879,    3.6017,  2, 13,  0.0574,  0.0489,  0.1208,  0.0150,  0.0147,  0.0455, -0.00,   2.3
2158,455434.000,  22.302191853, 114.188707822,    3.5907,  2, 13,  0.0571,  0.0486,  0.1202,  0.0149,  0.0147,  0.0454, -0.00,   2.3
2158,455435.000,  22.302191824, 114.188707748,    3.5805,  2, 13,  0.0568,  0.0483,  0.1195,  0.0147,  0.0148,  0.0453, -0.00,   2.3
2158,455436.000,  22.302191760, 114.188707651,    3.5823,  2, 13,  0.0564,  0.0480,  0.1189,  0.0146,  0.0148,  0.0453, -0.00,   2.3
2158,455437.000,  22.302191614, 114.188707590,    3.5500,  2, 13,  0.0561,  0.0476,  0.1183,  0.0145,  0.0149,  0.0451, -0.00,   2.2
2158,455438.000,  22.302191601, 114.188707488,    3.5432,  2, 13,  0.0558,  0.0473,  0.1176,  0.0143,  0.0150,  0.0451, -0.00,   2.2
2158,455439.000,  22.302191495, 114.188707467,    3.5246,  2, 13,  0.0554,  0.0470,  0.1170,  0.0143,  0.0150,  0.0449, -0.00,   2.2
2158,455440.000,  22.302191380, 114.188707351,    3.4943,  2, 13,  0.0552,  0.0468,  0.1164,  0.0141,  0.0149,  0.0448, -0.00,   2.2
2158,455441.000,  22.302191281, 114.188707288,    3.4743,  2, 13,  0.0548,  0.0465,  0.1158,  0.0141,  0.0150,  0.0447, -0.00,   2.2
2158,455442.000,  22.302190286, 114.188706728,    3.4428,  2, 13,  0.0545,  0.0462,  0.1152,  0.0140,  0.0151,  0.0446, -0.00,   2.2
2158,455443.000,  22.302180719, 114.188702933,    3.4324,  2, 13,  0.0542,  0.0459,  0.1146,  0.0138,  0.0151,  0.0445, -0.00,   2.2
2158,455444.000,  22.302155921, 114.188694933,    3.4418,  2, 13,  0.0539,  0.0456,  0.1140,  0.0137,  0.0151,  0.0443, -0.00,   2.2
2158,455445.000,  22.302117325, 114.188679929,    3.4366,  2, 13,  0.0536,  0.0454,  0.1134,  0.0137,  0.0151,  0.0442, -0.00,   2.2
2158,455446.000,  22.302068546, 114.188655132,    3.4205,  2, 10,  0.0535,  0.0454,  0.1132,  0.0140,  0.0166,  0.0442, -0.00,   1.0
2158,455447.000,  22.302010747, 114.188621565,    3.4107,  2, 10,  0.0533,  0.0453,  0.1128,  0.0140,  0.0159,  0.0443, -0.00,   1.0
2158,455448.000,  22.301947903, 114.188580584,    3.4665,  2, 11,  0.0530,  0.0450,  0.1123,  0.0135,  0.0152,  0.0441, -0.00,   1.2
2158,455449.000,  22.301887218, 114.188534538,    3.4683,  2, 10,  0.0533,  0.0450,  0.1127,  0.0143,  0.0164,  0.0452, -0.00,   1.1
2158,455450.000,  22.301829783, 114.188481651,    3.3339,  2,  7,  0.0701,  0.0617,  0.1663,  0.0462,  0.0739,  0.0874, -0.00,   2.3
2158,455451.000,  22.301776085, 114.188424631,    3.5816,  2, 10,  0.0526,  0.0449,  0.1116,  0.0134,  0.0167,  0.0441, -0.00,   1.3
2158,455452.000,  22.301726238, 114.188363309,    3.5808,  2, 10,  0.0523,  0.0447,  0.1111,  0.0130,  0.0167,  0.0440, -0.00,   1.2
2158,455453.000,  22.301681232, 114.188299966,    3.6138,  2, 10,  0.0521,  0.0445,  0.1107,  0.0127,  0.0167,  0.0439, -0.00,   1.1
2158,455454.000,  22.301637936, 114.188233213,    3.6323,  2,  8,  0.0524,  0.0447,  0.1117,  0.0135,  0.0195,  0.0451, -0.00,   1.5
2158,455455.000,  22.301591926, 114.188163046,    3.5567,  2,  8,  0.0523,  0.0445,  0.1114,  0.0135,  0.0197,  0.0452, -0.00,   1.4
2158,455456.000,  22.301548006, 114.188090996,    3.4600,  2,  9,  0.0518,  0.0441,  0.1097,  0.0120,  0.0174,  0.0440, -0.00,   1.1
2158,455457.000,  22.301508000, 114.188019877,    3.4190,  2,  9,  0.0516,  0.0439,  0.1094,  0.0118,  0.0176,  0.0439, -0.00,   1.0
2158,455458.000,  22.301473193, 114.187952113,    3.3029,  2,  7,  0.0517,  0.0441,  0.1104,  0.0128,  0.0196,  0.0448, -0.00,   1.7
2158,455459.000,  22.301443269, 114.187890022,    3.2044,  2, 10,  0.0513,  0.0437,  0.1089,  0.0117,  0.0174,  0.0437, -0.00,   1.0
2158,455460.000,  22.301418534, 114.187836001,    3.2961,  2, 11,  0.0509,  0.0434,  0.1083,  0.0117,  0.0166,  0.0436, -0.00,   1.0
2158,455461.000,  22.301397755, 114.187789337,    2.9238,  2, 10,  0.0506,  0.0432,  0.1079,  0.0116,  0.0163,  0.0435, -0.00,   1.1
2158,455462.000,  22.301383743, 114.187756739,    2.9404,  2,  9,  0.0505,  0.0430,  0.1075,  0.0113,  0.0160,  0.0434, -0.00,   1.1
2158,455463.000,  22.301375825, 114.187737206,    2.9542,  2, 10,  0.0504,  0.0428,  0.1072,  0.0106,  0.0161,  0.0433, -0.00,   1.1
2158,455464.000,  22.301371483, 114.187725965,    2.9395,  2, 10,  0.0502,  0.0427,  0.1068,  0.0105,  0.0158,  0.0431, -0.00,   1.2
2158,455465.000,  22.301369704, 114.187719996,    2.9996,  2, 11,  0.0501,  0.0425,  0.1068,  0.0100,  0.0156,  0.0434, -0.00,   1.2
2158,455466.000,  22.301368468, 114.187717401,    2.9056,  2, 10,  0.0501,  0.0424,  0.1070,  0.0104,  0.0166,  0.0439, -0.00,   1.6
2158,455467.000,  22.301367924, 114.187715809,    2.9418,  2,  9,  0.0502,  0.0429,  0.1072,  0.0095,  0.0193,  0.0437, -0.00,   1.2
2158,455468.000,  22.301366098, 114.187712107,    2.9407,  2, 10,  0.0498,  0.0424,  0.1065,  0.0096,  0.0184,  0.0435, -0.00,   1.0
2158,455469.000,  22.301366233, 114.187711356,    3.0002,  2, 11,  0.0495,  0.0421,  0.1054,  0.0089,  0.0169,  0.0430, -0.00,   1.0
2158,455470.000,  22.301366362, 114.187711398,    3.0171,  2, 11,  0.0492,  0.0419,  0.1050,  0.0087,  0.0168,  0.0429, -0.00,   1.0
2158,455471.000,  22.301366526, 114.187711324,    3.0136,  2, 11,  0.0490,  0.0417,  0.1046,  0.0085,  0.0167,  0.0428, -0.00,   1.1
2158,455472.000,  22.301366677, 114.187711307,    3.0145,  2, 11,  0.0488,  0.0416,  0.1043,  0.0082,  0.0167,  0.0427, -0.00,   1.1
2158,455473.000,  22.301366372, 114.187710320,    3.0062,  2, 11,  0.0486,  0.0414,  0.1040,  0.0080,  0.0167,  0.0426, -0.00,   1.0
2158,455474.000,  22.301365319, 114.187707230,    3.0085,  2, 11,  0.0484,  0.0413,  0.1036,  0.0078,  0.0166,  0.0425, -0.00,   1.0
2158,455475.000,  22.301364016, 114.187700827,    3.0234,  2, 11,  0.0326,  0.0333,  0.0976, -0.0290, -0.0233,  0.0237, -0.00,   1.1
2158,455476.000,  22.301364092, 114.187686883,    2.9975,  2, 10,  0.0332,  0.0325,  0.0973, -0.0284, -0.0239,  0.0246, -0.00,   1.0
2158,455477.000,  22.301372838, 114.187670241,    3.0513,  2,  5,  0.0374,  0.0329,  0.0990, -0.0300, -0.0261,  0.0302, -0.00,   1.5
2158,455478.000,  22.301391463, 114.187659205,    2.9519,  2,  5,  0.0394,  0.0357,  0.1184, -0.0323, -0.0400,  0.0434, -0.00,   1.0
2158,455479.000,  22.301271051, 114.187682108,  -17.2261,  2,  4, 18.5404,  2.4253, 23.4601, -6.7054, -7.5427, 20.8556, -0.00,   1.0
2158,455480.000,  22.301440538, 114.187681614,    3.0261,  2,  5,  0.1098,  0.0363,  0.1138, -0.0148, -0.0400,  0.0159, -0.00,   1.0
2158,455481.000,  22.301455401, 114.187712574,    3.0977,  2,  8,  0.1090,  0.0362,  0.1137, -0.0146, -0.0399,  0.0147, -0.00,   1.0
2158,455482.000,  22.301469556, 114.187752159,    3.1856,  2,  8,  0.0842,  0.0361,  0.1134, -0.0178, -0.0399, -0.0122, -0.00,   1.1
2158,455483.000,  22.301489370, 114.187801971,    2.6265,  2,  9,  0.0733,  0.0360,  0.1130, -0.0187, -0.0398, -0.0156, -0.00,   1.1
2158,455484.000,  22.301512266, 114.187856371,    2.3963,  2, 10,  0.0675,  0.0364,  0.1109, -0.0182, -0.0398, -0.0174, -0.00,   1.3
2158,455485.000,  22.301538495, 114.187913496,    2.3554,  2, 11,  0.0626,  0.0345,  0.1048, -0.0215, -0.0344,  0.0078, -0.00,   1.0
2158,455486.000,  22.301565033, 114.187970227,    2.8486,  2,  9,  0.0608,  0.0358,  0.1124, -0.0192, -0.0397, -0.0190, -0.00,   1.0
2158,455487.000,  22.301591581, 114.188025236,    2.9972,  2, 10,  0.0582,  0.0336,  0.1021, -0.0224, -0.0319,  0.0096, -0.00,   1.0
2158,455488.000,  22.301614360, 114.188073768,    4.1734,  2,  9,  0.0570,  0.0346,  0.1054, -0.0208, -0.0353, -0.0125, -0.00,   1.2
2158,455489.000,  22.301645275, 114.188119016,    3.9234,  2,  7,  0.0574,  0.0345,  0.1064, -0.0206, -0.0346, -0.0119, -0.00,   1.0
2158,455490.000,  22.301675516, 114.188160614,    3.9015,  2,  9,  0.0569,  0.0344,  0.1061, -0.0206, -0.0344, -0.0116, -0.00,   1.0
2158,455491.000,  22.301703864, 114.188197253,    3.8803,  2, 10,  0.0560,  0.0336,  0.1031, -0.0217, -0.0318,  0.0034, -0.00,   1.0
2158,455492.000,  22.301728328, 114.188227245,    3.8502,  2,  8,  0.0558,  0.0333,  0.1083, -0.0221, -0.0311,  0.0118, -0.00,   1.0
2158,455493.000,  22.301747049, 114.188249748,    3.8302,  2,  8,  0.0568,  0.0351,  0.1219, -0.0187, -0.0404, -0.0256, -0.00,   1.0
2158,455494.000,  22.301758490, 114.188262899,    3.7848,  2, 10,  0.0549,  0.0336,  0.1086, -0.0219, -0.0332,  0.0082, -0.00,   1.1
2158,455495.000,  22.301763849, 114.188268754,    3.7496,  2,  9,  0.0546,  0.0334,  0.1076, -0.0219, -0.0324,  0.0089, -0.00,   1.0
2158,455496.000,  22.301764693, 114.188269654,    3.7416,  2, 10,  0.0542,  0.0332,  0.1067, -0.0219, -0.0321,  0.0104, -0.00,   1.1
2158,455497.000,  22.301764757, 114.188269646,    3.7042,  2, 10,  0.0540,  0.0330,  0.1062, -0.0219, -0.0317,  0.0104, -0.00,   1.0
2158,455498.000,  22.301764934, 114.188269656,    3.6893,  2, 11,  0.0536,  0.0329,  0.1056, -0.0218, -0.0315,  0.0119, -0.00,   1.1
2158,455499.000,  22.301765059, 114.188269721,    3.6602,  2, 11,  0.0533,  0.0328,  0.1052, -0.0218, -0.0312,  0.0125, -0.00,   1.3
2158,455500.000,  22.301765136, 114.188269725,    3.6216,  2, 10,  0.0534,  0.0327,  0.1060, -0.0214, -0.0306,  0.0173, -0.00,   1.5
2158,455501.000,  22.301765261, 114.188269768,    3.6122,  2, 11,  0.0528,  0.0326,  0.1043, -0.0217, -0.0308,  0.0142, -0.00,   1.4
2158,455502.000,  22.301765389, 114.188269755,    3.5981,  2, 11,  0.0525,  0.0325,  0.1038, -0.0216, -0.0307,  0.0150, -0.00,   1.7
2158,455503.000,  22.301765527, 114.188269883,    3.5807,  2, 12,  0.0522,  0.0324,  0.1033, -0.0215, -0.0305,  0.0158, -0.00,   1.5
2158,455504.000,  22.301765700, 114.188269869,    3.5614,  2, 12,  0.0519,  0.0323,  0.1028, -0.0214, -0.0304,  0.0165, -0.00,   1.7
2158,455505.000,  22.301765741, 114.188269919,    3.5337,  2, 11,  0.0516,  0.0323,  0.1024, -0.0213, -0.0302,  0.0168, -0.00,   1.8
2158,455506.000,  22.301765875, 114.188269885,    3.5216,  2, 11,  0.0514,  0.0322,  0.1019, -0.0213, -0.0301,  0.0173, -0.00,   1.7
2158,455507.000,  22.301765893, 114.188269914,    3.4862,  2, 11,  0.0512,  0.0322,  0.1015, -0.0211, -0.0299,  0.0177, -0.00,   1.7
2158,455508.000,  22.301765932, 114.188270005,    3.4845,  2, 10,  0.0511,  0.0322,  0.1013, -0.0213, -0.0295,  0.0173, -0.00,   1.5
2158,455509.000,  22.301766019, 114.188269997,    3.4595,  2, 11,  0.0508,  0.0320,  0.1009, -0.0212, -0.0294,  0.0178, -0.00,   1.6
2158,455510.000,  22.301766078, 114.188270008,    3.4412,  2, 13,  0.0505,  0.0320,  0.1004, -0.0210, -0.0294,  0.0184, -0.00,   1.2
2158,455511.000,  22.301766194, 114.188270022,    3.4455,  2, 12,  0.0507,  0.0318,  0.1010, -0.0209, -0.0292,  0.0208, -0.00,   1.1
2158,455512.000,  22.301766278, 114.188270074,    3.4381,  2, 12,  0.0505,  0.0317,  0.1006, -0.0209, -0.0292,  0.0211, -0.00,   1.2
2158,455513.000,  22.301766205, 114.188270083,    3.3974,  2, 13,  0.0500,  0.0317,  0.0995, -0.0209, -0.0294,  0.0194, -0.00,   1.3
2158,455514.000,  22.301766296, 114.188270155,    3.3898,  2, 12,  0.0497,  0.0317,  0.0991, -0.0207, -0.0290,  0.0198, -0.00,   1.6
2158,455515.000,  22.301766336, 114.188270217,    3.3725,  2, 12,  0.0495,  0.0316,  0.0986, -0.0207, -0.0288,  0.0202, -0.00,   1.6
2158,455516.000,  22.301766405, 114.188270170,    3.3637,  2, 12,  0.0494,  0.0314,  0.0982, -0.0208, -0.0286,  0.0202, -0.00,   1.1
2158,455517.000,  22.301766417, 114.188270175,    3.3469,  2, 11,  0.0492,  0.0315,  0.0980, -0.0206, -0.0284,  0.0203, -0.00,   1.4
2158,455518.000,  22.301766474, 114.188270168,    3.3336,  2, 11,  0.0490,  0.0314,  0.0976, -0.0206, -0.0282,  0.0204, -0.00,   1.4
2158,455519.000,  22.301766483, 114.188270190,    3.3227,  2, 12,  0.0488,  0.0313,  0.0972, -0.0204, -0.0282,  0.0207, -0.00,   1.5
2158,455520.000,  22.301766514, 114.188270224,    3.3073,  2, 12,  0.0486,  0.0313,  0.0969, -0.0204, -0.0281,  0.0209, -0.00,   1.5
2158,455521.000,  22.301766561, 114.188270170,    3.2988,  2, 12,  0.0484,  0.0312,  0.0966, -0.0203, -0.0279,  0.0210, -0.00,   1.5
2158,455522.000,  22.301766661, 114.188270170,    3.2977,  2, 12,  0.0482,  0.0312,  0.0963, -0.0202, -0.0278,  0.0212, -0.00,   1.5
2158,455523.000,  22.301766757, 114.188270314,    3.2845,  2, 12,  0.0480,  0.0311,  0.0959, -0.0200, -0.0277,  0.0215, -0.00,   1.5
2158,455524.000,  22.301768863, 114.188272624,    3.2700,  2, 12,  0.0478,  0.0312,  0.0957, -0.0201, -0.0274,  0.0214, -0.00,   1.2
2158,455525.000,  22.301775674, 114.188280317,    3.2520,  2, 11,  0.0477,  0.0310,  0.0955, -0.0202, -0.0273,  0.0212, -0.00,   1.5
2158,455526.000,  22.301790991, 114.188296981,    3.2292,  2,  9,  0.0476,  0.0312,  0.0955, -0.0200, -0.0273,  0.0210, -0.00,   1.9
2158,455527.000,  22.301813723, 114.188320435,    3.2133,  2,  9,  0.0480,  0.0312,  0.0965, -0.0197, -0.0263,  0.0239, -0.00,   1.3
2158,455528.000,  22.301843303, 114.188348971,    3.1293,  2, 10,  0.0474,  0.0310,  0.0948, -0.0201, -0.0268,  0.0213, -0.00,   1.6
2158,455529.000,  22.301879160, 114.188380565,    3.0915,  2, 11,  0.0477,  0.0310,  0.0960, -0.0197, -0.0260,  0.0243, -0.00,   1.3
2158,455530.000,  22.301921630, 114.188413912,    3.0531,  2, 11,  0.0475,  0.0309,  0.0957, -0.0195, -0.0262,  0.0247, -0.00,   1.3
2158,455531.000,  22.301970644, 114.188447006,    2.9956,  2, 12,  0.0472,  0.0307,  0.0949, -0.0196, -0.0265,  0.0244, -0.00,   1.3
2158,455532.000,  22.302023624, 114.188477172,    2.9088,  2, 12,  0.0471,  0.0307,  0.0947, -0.0195, -0.0264,  0.0248, -0.00,   1.5
2158,455533.000,  22.302079986, 114.188504466,    2.8579,  2, 12,  0.0468,  0.0305,  0.0941, -0.0196, -0.0264,  0.0247, -0.00,   1.2
2158,455534.000,  22.302137462, 114.188527586,    2.8073,  2, 12,  0.0466,  0.0304,  0.0936, -0.0197, -0.0265,  0.0247, -0.00,   1.9
2158,455535.000,  22.302192825, 114.188546410,    2.7781,  2, 13,  0.0467,  0.0304,  0.0935, -0.0197, -0.0262,  0.0253, -0.00,   1.4
2158,455536.000,  22.302244259, 114.188560812,    2.7091,  2, 13,  0.0464,  0.0303,  0.0930, -0.0195, -0.0263,  0.0253, -0.00,   1.8
2158,455537.000,  22.302291573, 114.188572098,    2.6815,  2, 12,  0.0463,  0.0302,  0.0928, -0.0194, -0.0260,  0.0257, -0.00,   2.0
2158,455538.000,  22.302334914, 114.188581203,    2.6516,  2, 12,  0.0461,  0.0301,  0.0924, -0.0194, -0.0260,  0.0259, -0.00,   2.2
2158,455539.000,  22.302369921, 114.188587773,    2.6172,  2, 12,  0.0459,  0.0301,  0.0921, -0.0193, -0.0259,  0.0261, -0.00,   2.4
2158,455540.000,  22.302394434, 114.188591799,    2.6273,  2, 13,  0.0457,  0.0299,  0.0916, -0.0194, -0.0260,  0.0261, -0.00,   2.7
2158,455541.000,  22.302409377, 114.188594006,    2.6052,  2, 13,  0.0455,  0.0298,  0.0913, -0.0193, -0.0260,  0.0262, -0.00,   2.9
2158,455542.000,  22.302417516, 114.188595141,    2.5855,  2, 13,  0.0453,  0.0298,  0.0910, -0.0193, -0.0259,  0.0264, -0.00,   3.0
2158,455543.000,  22.302419328, 114.188600151,    3.2743,  1, 13,  0.0068,  0.0045,  0.0140, -0.0024, -0.0026,  0.0078, -0.00,   3.1
2158,455544.000,  22.302419387, 114.188600177,    3.2618,  1, 13,  0.0067,  0.0044,  0.0140, -0.0034, -0.0025,  0.0079, -0.00,   3.2
2158,455545.000,  22.302419383, 114.188600157,    3.2714,  1, 13,  0.0069,  0.0046,  0.0140, -0.0025, -0.0027,  0.0077, -0.00,   3.3
2158,455546.000,  22.302419354, 114.188600140,    3.2616,  1, 13,  0.0069,  0.0048,  0.0140, -0.0027, -0.0029,  0.0078, -0.00,   3.4
2158,455547.000,  22.302419363, 114.188600126,    3.2568,  1, 13,  0.0068,  0.0045,  0.0140, -0.0023, -0.0029,  0.0077, -0.00,   3.5
2158,455548.000,  22.302419373, 114.188600119,    3.2459,  1, 13,  0.0068,  0.0047,  0.0140, -0.0028, -0.0031,  0.0078, -0.00,   3.5
2158,455549.000,  22.302419354, 114.188600134,    3.2426,  1, 13,  0.0068,  0.0047,  0.0140, -0.0025, -0.0031,  0.0078, -0.00,   3.6
2158,455550.000,  22.302419375, 114.188600167,    3.2556,  1, 12,  0.0071,  0.0048,  0.0142, -0.0029, -0.0018,  0.0075, -0.00,   3.8
2158,455551.000,  22.302419359, 114.188600149,    3.2575,  1, 12,  0.0069,  0.0049,  0.0141, -0.0029, -0.0024,  0.0076, -0.00,   3.9
2158,455552.000,  22.302419323, 114.188600152,    3.2458,  1, 12,  0.0071,  0.0050,  0.0141, -0.0028, -0.0027,  0.0076, -0.00,   3.8
2158,455553.000,  22.302419327, 114.188600134,    3.2590,  1, 12,  0.0070,  0.0053,  0.0140, -0.0028, -0.0025,  0.0078, -0.00,   8.2
2158,455554.000,  22.302419326, 114.188600125,    3.2469,  1, 12,  0.0069,  0.0047,  0.0141, -0.0032, -0.0022,  0.0077, -0.00,   9.7
2158,455555.000,  22.302419334, 114.188600131,    3.2543,  1, 12,  0.0069,  0.0050,  0.0141, -0.0029, -0.0022,  0.0077, -0.00,  11.3
2158,455556.000,  22.302419224, 114.188600156,    3.2576,  2, 13,  0.0076,  0.0051,  0.0152, -0.0028, -0.0016,  0.0081, -0.00,   1.1
2158,455557.000,  22.302419296, 114.188600124,    3.2681,  2, 13,  0.0074,  0.0047,  0.0151, -0.0023, -0.0022,  0.0083, -0.00,   1.2
2158,455558.000,  22.302419247, 114.188600127,    3.2547,  2, 13,  0.0072,  0.0051,  0.0151, -0.0031, -0.0022,  0.0086, -0.00,   1.2
2158,455559.000,  22.302419381, 114.188600108,    3.2427,  1, 12,  0.0071,  0.0047,  0.0141, -0.0030, -0.0024,  0.0076, -0.00,  13.0
2158,455560.000,  22.302419276, 114.188600087,    3.2484,  2, 13,  0.0075,  0.0045,  0.0151, -0.0030, -0.0019,  0.0084, -0.00,   1.2
2158,455561.000,  22.302419316, 114.188600069,    3.2497,  2, 13,  0.0074,  0.0051,  0.0151, -0.0027, -0.0023,  0.0085, -0.00,   1.2
2158,455562.000,  22.302419775, 114.188600154,    3.2473,  2, 13,  0.0075,  0.0050,  0.0151, -0.0021, -0.0025,  0.0084, -0.00,   1.3
2158,455563.000,  22.302423460, 114.188600561,    3.2322,  2, 13,  0.0074,  0.0053,  0.0151, -0.0026, -0.0023,  0.0086, -0.00,   1.4
2158,455564.000,  22.302433225, 114.188601572,    3.2066,  1, 12,  0.0070,  0.0046,  0.0141, -0.0030, -0.0021,  0.0076, -0.00,  13.3
2158,455565.000,  22.302452379, 114.188602969,    3.1988,  1, 13,  0.0071,  0.0051,  0.0141, -0.0030, -0.0021,  0.0076, -0.00,  13.3
2158,455566.000,  22.302480599, 114.188603224,    3.1445,  1, 13,  0.0071,  0.0049,  0.0141, -0.0030, -0.0019,  0.0075, -0.00,  13.2
2158,455567.000,  22.302517121, 114.188600596,    3.1601,  1, 11,  0.0071,  0.0057,  0.0165, -0.0029, -0.0058,  0.0076, -0.00,  13.3
2158,455568.000,  22.302561133, 114.188593947,    3.1022,  1, 12,  0.0069,  0.0051,  0.0147, -0.0028, -0.0040,  0.0077, -0.00,  13.4
2158,455569.000,  22.302611789, 114.188581159,    3.1209,  2, 12,  0.0076,  0.0057,  0.0163, -0.0033, -0.0041,  0.0088, -0.00,   1.2
2158,455570.000,  22.302664938, 114.188564316,    3.0704,  2, 11,  0.0077,  0.0088,  0.0236, -0.0045, -0.0116,  0.0101, -0.00,   1.3
2158,455571.000,  22.302719778, 114.188544113,    2.9845,  2, 12,  0.0075,  0.0054,  0.0162, -0.0032, -0.0044,  0.0089, -0.00,   1.4
2158,455572.000,  22.302776559, 114.188519810,    2.9497,  2, 12,  0.0075,  0.0055,  0.0162, -0.0032, -0.0043,  0.0089, -0.00,   1.5
2158,455573.000,  22.302834973, 114.188490781,    2.9375,  2, 11,  0.0077,  0.0089,  0.0233, -0.0044, -0.0115,  0.0101, -0.00,   1.6
2158,455574.000,  22.302894315, 114.188456242,    2.7970,  1, 10,  0.0075,  0.0091,  0.0237, -0.0037, -0.0110,  0.0099, -0.00,  13.9
2158,455575.000,  22.302952768, 114.188415269,    2.7059,  2, 10,  0.0079,  0.0092,  0.0235, -0.0035, -0.0111,  0.0106, -0.00,   1.8
2158,455576.000,  22.303008296, 114.188368040,    2.4380,  2,  9,  0.0082,  0.0099,  0.0245, -0.0030, -0.0122,  0.0100, -0.00,   2.2
2158,455577.000,  22.303060619, 114.188314560,    1.8078,  1,  7,  0.0099,  0.0105,  0.0355,  0.0038, -0.0134,  0.0102, -0.00,  18.8
2158,455578.000,  22.303135080, 114.188217616,   14.7536,  5, 10, 30.0000, 30.0000, 30.0000,  0.0000,  0.0000, -0.0000, -0.00,   0.0
2158,455579.000,  22.303219338, 114.188191679,   12.7491,  5,  2, 11.8082, 27.9608, 29.6777,-17.3155,  6.9050, 10.9975, -0.00,   0.0
2158,455580.000,  22.303226930, 114.188115847,    5.0695,  2,  8,  0.9164,  1.0387,  2.4408,  0.3006, -1.0928,  1.1460, -0.00,   0.0
2158,455581.000,  22.303251664, 114.188029945,    1.2345,  2,  8,  0.6929,  0.7789,  1.7308,  0.3270, -0.7801,  0.8073, -0.00,  33.3
2158,455582.000,  22.303300379, 114.187954182,   -1.5536,  2,  9,  0.5744,  0.5217,  1.1217,  0.3606, -0.2640,  0.5904, -0.00,   1.6
2158,455583.000,  22.303358403, 114.187868881,   -1.3738,  2, 10,  0.4571,  0.3874,  0.9032,  0.2614, -0.1727,  0.4699, -0.00,   2.3
2158,455584.000,  22.303414648, 114.187781416,   -1.8689,  2,  7,  0.4133,  0.3588,  0.8640,  0.2286, -0.2038,  0.4249, -0.00,   1.1
2158,455585.000,  22.303470666, 114.187691208,   -2.5243,  2,  7,  0.3802,  0.3363,  0.8315,  0.2045, -0.2182,  0.3911, -0.00,   1.0
2158,455586.000,  22.303530284, 114.187606283,   -2.0764,  1,  5,  0.1145,  0.1105,  0.7921,  0.1120, -0.2590, -0.2591, -0.00,   4.3
2158,455592.000,  22.303823992, 114.187086054,   -1.8547,  2,  6,  1.2346,  1.2873,  3.5160,  0.8476, -1.2316,  1.1122, -0.00,   0.0
2158,455593.000,  22.303876527, 114.187020282,   -5.9936,  2,  6,  0.7577,  0.8007,  2.4858,  0.4116, -0.9140,  0.7398, -0.00,   0.0
2158,455594.000,  22.303908998, 114.186938750,    5.8053,  2,  5,  3.1610,  3.1288, 18.7490,  3.0980, -7.5569, -7.5448, -0.00,  21.5
2158,455595.999,  22.304065206, 114.186832795,   16.3621,  2,  5,  5.0084,  5.3953, 27.1071,  5.0464, -1.2684,  3.1518, -0.00,   0.0
2158,455597.000,  22.304157978, 114.186888022,   17.5420,  2,  5,  3.5104,  3.8071, 24.8757,  3.5444, -0.6891,  3.0690, -0.00,   0.0
2158,455598.000,  22.304096832, 114.186730337,   -5.8327,  2,  7,  1.1443,  1.2641,  2.7485,  1.0221, -1.3505, -0.7199, -0.00,   0.0
2158,455599.000,  22.304138603, 114.186693010,   -2.5547,  2,  8,  0.6221,  0.6941,  1.8064,  0.3965, -0.8183,  0.4115, -0.00,   0.0
2158,455600.000,  22.304170318, 114.186656675,    2.3688,  2, 10,  0.4406,  0.5054,  1.3861,  0.1352, -0.6345,  0.4330, -0.00,   1.4
2158,455601.000,  22.304190689, 114.186627599,    2.8077,  2,  8,  0.3952,  0.4462,  1.1992,  0.1063, -0.5389,  0.4273, -0.00,   1.1
2158,455602.000,  22.304209661, 114.186607585,    3.0091,  2,  9,  0.3496,  0.3981,  1.0703,  0.0412, -0.4945,  0.3751, -0.00,   1.4
2158,455603.000,  22.304227614, 114.186589958,    2.0048,  2, 11,  0.3121,  0.3099,  0.8560,  0.0709, -0.3448,  0.3088, -0.00,   1.5
2158,455604.000,  22.304249715, 114.186572968,    1.3189,  1, 10,  0.0076,  0.0056,  0.0152,  0.0030, -0.0043,  0.0047, -0.00,   3.4
2158,455605.000,  22.304266182, 114.186544235,    1.8875,  2, 10,  0.2657,  0.2364,  0.6623,  0.0743, -0.2372,  0.2363, -0.00,   2.3
2158,455606.000,  22.304286845, 114.186519855,    2.1991,  2, 10,  0.2483,  0.2279,  0.6293,  0.0598, -0.2392,  0.2276, -0.00,   2.2
2158,455607.000,  22.304304229, 114.186498524,    2.4100,  2,  9,  0.2371,  0.2210,  0.6063,  0.0535, -0.2357,  0.2262, -0.00,   1.8
2158,455608.000,  22.304322223, 114.186476704,    2.6406,  2, 10,  0.2244,  0.2141,  0.5818,  0.0409, -0.2347,  0.2179, -0.00,   2.9
2158,455609.000,  22.304338719, 114.186457653,    2.7333,  2, 10,  0.1417,  0.2017,  0.4213, -0.0861, -0.2707, -0.1218, -0.00,   1.0
2158,455610.000,  22.304352023, 114.186442846,    2.8339,  2, 10,  0.1352,  0.1970,  0.4086, -0.0840, -0.2644, -0.1140, -0.00,   1.0
2158,455611.000,  22.304362399, 114.186431313,    2.9799,  2, 10,  0.1295,  0.1927,  0.3974, -0.0821, -0.2585, -0.1068, -0.00,   1.1
2158,455612.000,  22.304370469, 114.186422225,    3.0611,  2, 10,  0.1246,  0.1886,  0.3872, -0.0804, -0.2531, -0.1005, -0.00,   1.1
2158,455613.000,  22.304377282, 114.186414850,    3.1147,  2, 10,  0.1202,  0.1848,  0.3779, -0.0787, -0.2479, -0.0948, -0.00,   1.1
2158,455614.000,  22.304382099, 114.186409859,    3.0770,  2, 10,  0.1159,  0.1811,  0.3688, -0.0770, -0.2429, -0.0907, -0.00,   1.0
2158,455615.000,  22.304384690, 114.186407159,    3.0860,  2, 10,  0.1122,  0.1777,  0.3607, -0.0754, -0.2383, -0.0863, -0.00,   1.0
2158,455616.000,  22.304385399, 114.186406271,    3.1117,  2, 10,  0.1089,  0.1744,  0.3532, -0.0740, -0.2339, -0.0823, -0.00,   1.0
2158,455617.000,  22.304385496, 114.186406236,    3.1043,  2, 10,  0.1059,  0.1712,  0.3461, -0.0726, -0.2297, -0.0786, -0.00,   1.0
2158,455618.000,  22.304385574, 114.186406253,    3.0793,  2, 10,  0.1031,  0.1683,  0.3394, -0.0714, -0.2257, -0.0753, -0.00,   1.0
2158,455619.000,  22.304385683, 114.186406143,    3.1017,  2, 10,  0.1005,  0.1654,  0.3331, -0.0701, -0.2219, -0.0723, -0.00,   1.0
2158,455620.000,  22.304385685, 114.186406262,    3.0730,  2, 10,  0.0982,  0.1627,  0.3272, -0.0690, -0.2183, -0.0695, -0.00,   1.0
2158,455621.000,  22.304385745, 114.186406098,    3.0959,  2, 10,  0.0959,  0.1602,  0.3215, -0.0678, -0.2148, -0.0669, -0.00,   1.0
2158,455622.000,  22.304385855, 114.186405958,    3.1220,  2, 10,  0.0938,  0.1577,  0.3162, -0.0668, -0.2115, -0.0645, -0.00,   1.0
2158,455623.000,  22.304385917, 114.186405787,    3.1418,  2, 10,  0.0919,  0.1553,  0.3111, -0.0658, -0.2084, -0.0623, -0.00,   1.0
2158,455624.000,  22.304387151, 114.186404388,    3.1791,  2, 10,  0.0900,  0.1531,  0.3062, -0.0648, -0.2053, -0.0602, -0.00,   1.0
2158,455625.000,  22.304389954, 114.186401254,    3.2038,  2, 10,  0.0883,  0.1509,  0.3015, -0.0638, -0.2024, -0.0583, -0.00,   1.0
2158,455626.000,  22.304395017, 114.186395875,    3.2324,  2, 10,  0.0866,  0.1488,  0.2970, -0.0629, -0.1996, -0.0565, -0.00,   1.0
2158,455627.000,  22.304399250, 114.186391699,    3.1655,  2, 11,  0.0850,  0.1418,  0.2838, -0.0607, -0.1898, -0.0577, -0.00,   1.0
2158,455628.000,  22.304400407, 114.186390340,    3.1953,  2, 12,  0.0833,  0.1355,  0.2710, -0.0590, -0.1808, -0.0576, -0.00,   1.0
2158,455629.000,  22.30